time(millisecond),datetime(utc),latitude,longitude,height_above_takeoff(feet),height_above_ground_at_drone_location(feet),ground_elevation_at_drone_location(feet),altitude_above_seaLevel(feet),height_sonar(feet),speed(mph),distance(feet),mileage(feet),satellites,gpslevel,voltage(v),max_altitude(feet),max_ascent(feet),max_speed(mph),max_distance(feet), xSpeed(mph), ySpeed(mph), zSpeed(mph), compass_heading(degrees), pitch(degrees), roll(degrees),isPhoto,isVideo,rc_elevator,rc_aileron,rc_throttle,rc_rudder,rc_elevator(percent),rc_aileron(percent),rc_throttle(percent),rc_rudder(percent),gimbal_heading(degrees),gimbal_pitch(degrees),gimbal_roll(degrees),battery_percent,voltageCell1,voltageCell2,voltageCell3,voltageCell4,voltageCell5,voltageCell6,current(A),battery_temperature(f),altitude(feet),ascent(feet),flycStateRaw,flycState,message
5780,1969-12-31 16:00:00,0,0,0,Available with any HD 360 subscription,Available with any HD 360 subscription,30.43327853292,0,0,0,0,0,0,0,30.43327853292,0,0,0,0,0,0,0, 0, 0,0,0,1024,1024,1024,1024,0,0,0,0,0,0,0,100,4.047,4.044,4.046,4.045,0,0,0,77.81,30.43327853292,0,0,,
19680,1969-12-31 16:00:00,0,0,0,,,30.43327853292,0,0,0,0,0,0,0,30.43327853292,0,0,0,0,0,0,0, 0, 0,0,0,1024,1024,1024,1024,0,0,0,0,0,0,0,100,4.047,4.044,4.046,4.045,0,0,0,77.81,30.43327853292,0,0,,"[gps] Found echo!"
52650,1969-12-31 16:00:00,0,0,0,,,30.43327853292,0,0,0,0,0,0,0,30.43327853292,0,0,0,0,0,0,0, 0, 0,0,0,1024,1024,1024,1024,0,0,0,0,0,0,0,100,4.047,4.044,4.046,4.045,0,0,0,77.81,30.43327853292,0,0,,
57600,1969-12-31 16:00:00,0,0,0,,,30.43327853292,0,0,0,0,0,0,0,30.43327853292,0,0,0,0,0,0,0, 0, 0,0,0,1024,1024,1024,1024,0,0,0,0,0,0,0,100,4.047,4.044,4.046,4.045,0,0,0,77.81,30.43327853292,0,0,,"[logger] Start mavlink log"
59100,1969-12-31 16:00:00,0,0,0,,,30.43327853292,0,0,0,0,0,0,0,30.43327853292,0,0,0,0,0,0,0, 0, 0,0,0,1024,1024,1024,1024,0,0,0,0,0,0,0,100,4.047,4.044,4.046,4.045,0,0,0,77.81,30.43327853292,0,0,,
59530,1969-12-31 16:00:00,0,0,0,,,30.43327853292,0,0,0,0,0,0,0,30.43327853292,0,0,0,0,0,0,0, 0, 0,0,0,1024,1024,1024,1024,0,0,0,0,0,0,0,100,4.047,4.044,4.046,4.045,0,0,0,77.81,30.43327853292,0,0,,
59730,1969-12-31 16:00:00,0,0,0,,,30.43327853292,0,0,0,0,0,0,0,30.43327853292,0,0,0,0,0,0,0, 0, 0,0,0,1024,1024,1024,1024,0,0,0,0,0,0,0,100,4.047,4.044,4.046,4.045,0,0,0,77.81,30.43327853292,0,0,,
59950,2011-02-07 16:45:55,-3.1117359,107.9423602,0,,,30.43327853292,0,0.0223694,0,0,6,0,0,30.43327853292,0,0.0223694,0,0,0,0,86.9, 84.4, 133.2,0,0,1024,1024,1024,1024,0,0,0,0,0,0,0,100,4.047,4.044,4.046,4.045,0,0,0,77.81,30.43327853292,0,0,,
60150,2011-02-07 16:45:55,-3.111736,107.9423603,0,,,30.43327853292,0,0.0447388,0.051559384852,0.051559384852,6,0,32.5021,30.43327853292,0,0.0447388,0.051559384852,0,0,0,86.9, 84.4, 133.2,0,0,1024,1024,1024,1024,0,0,0,0,0,0,0,100,4.047,4.044,4.046,4.045,0,0,0,77.81,30.43327853292,0,0,,
60350,2011-02-07 16:45:56,-3.1117362,107.9423604,-0.5461450306,,,29.88713350232,0,0.0223694,0.131488521268,0.133118114496,6,0,32.5021,30.43327853292,0,0.0447388,0.131488521268,0,0,0,86.9, 84.4, 133.2,0,0,1024,1024,1024,1024,0,0,0,0,0,0,0,100,4.047,4.044,4.046,4.045,0,0,0,77.81,29.88713350232,-0.5461450306,0,,
60550,2011-02-07 16:45:56,-3.1117363,107.9423605,-0.5461450306,,,29.88713350232,0,0.0447388,0.18232776174,0.184677827432,6,0,32.5021,30.43327853292,0,0.0447388,0.18232776174,0,0,0,86.9, 84.4, 133.2,0,0,1024,1024,1024,1024,0,0,0,0,0,0,0,100,4.047,4.044,4.046,4.045,0,0,0,77.81,29.88713350232,-0.5461450306,0,,
60750,2011-02-07 16:45:56,-3.1117363,107.9423605,-0.8235564568,,,29.60972207612,0,0.0447388,0.18232776174,0.184677827432,6,0,32.5021,30.43327853292,0,0.0447388,0.18232776174,0,0,0,86.9, 84.4, 133.3,0,0,1024,1024,1024,1024,0,0,0,0,0,0,0,100,4.047,4.044,4.046,4.045,0,0,0,77.81,29.60972207612,-0.8235564568,0,,
60950,2011-02-07 16:45:56,-3.1117366,107.9423607,-3.01682096268,,,27.41645757024,0,0.0223694,0.31369915702,0.3161663487,6,0,32.5021,30.43327853292,0,0.0447388,0.31369915702,0,0,0,86.9, 84.4, 133.2,0,0,1024,1024,1024,1024,0,0,0,0,0,0,0,100,4.047,4.044,4.046,4.045,0,0,0,77.81,27.41645757024,-3.01682096268,0,,
61150,2011-02-07 16:45:56,-3.1117368,107.9423608,-3.01682096268,,,27.41645757024,0,0.0447388,0.39446523572,0.39772639068,6,0,32.5021,30.43327853292,0,0.0447388,0.39446523572,0,0,0,86.9, 84.4, 133.2,0,0,1024,1024,1024,1024,0,0,0,0,0,0,0,100,4.047,4.044,4.046,4.045,0,0,0,77.81,27.41645757024,-3.01682096268,0,,
61350,2011-02-07 16:45:57,-3.111737,107.9423609,-0.5461450306,,,29.88713350232,0,0.0447388,0.47550198372,0.47928479224,6,0,32.5021,30.43327853292,0,0.0447388,0.47550198372,0,0,0,86.9, 84.4, 133.3,0,0,1024,1024,1024,1024,0,0,0,0,0,0,0,100,4.047,4.044,4.046,4.045,0,0,0,77.81,29.88713350232,-0.5461450306,0,,
61550,2011-02-07 16:45:57,-3.111737,107.9423609,-0.5461450306,,,29.88713350232,0,0.0447388,0.47550198372,0.47928479224,6,0,32.5021,30.43327853292,0,0.0447388,0.47550198372,0,0,0,86.9, 84.4, 133.3,0,0,1024,1024,1024,1024,0,0,0,0,0,0,0,100,4.047,4.044,4.046,4.045,0,0,0,77.81,29.88713350232,-0.5461450306,0,,
61750,2011-02-07 16:45:57,-3.1117371,107.9423609,-1.91585964136,,,28.51741889156,0,0.0223694,0.5066765254,0.51576773304,6,0,32.5021,30.43327853292,0,0.0447388,0.5066765254,0,0,0,86.9, 84.4, 133.2,0,0,1024,1024,1024,1024,0,0,0,0,0,0,0,100,4.047,4.044,4.046,4.045,0,0,0,77.81,28.51741889156,-1.91585964136,0,,
61950,2011-02-07 16:45:57,-3.1117374,107.9423609,-0.5461450306,,,29.88713350232,0,0.0223694,0.6037729852,0.62522311712,6,0,32.5021,30.43327853292,0,0.0447388,0.6037729852,0,0,0,86.9, 84.4, 133.2,0,0,1024,1024,1024,1024,0,0,0,0,0,0,0,100,4.047,4.044,4.046,4.045,0,0,0,77.81,29.88713350232,-0.5461450306,0,,"[mavlink] Setting camera type to 66 from 0"
62150,2011-02-07 16:45:57,-3.1117376,107.9423609,-0.5461450306,,,29.88713350232,0,0,0.67062338104,0.69819227956,6,0,32.5112,30.43327853292,0,0.0447388,0.67062338104,0,0,0,86.9, 84.4, 133.2,0,0,1024,1024,1024,1024,0,0,0,0,0,0,0,100,4.047,4.044,4.046,4.045,0,0,0,77.81,29.88713350232,-0.5461450306,0,,
62350,2011-02-07 16:45:58,-3.1117377,107.9423609,-1.36970476824,,,29.06357376468,0,0.0223694,0.70450461572,0.7346785012,6,0,32.5112,30.43327853292,0,0.0447388,0.70450461572,0,0,0,86.9, 84.4, 133.2,0,0,1024,1024,1024,1024,0,0,0,0,0,0,0,100,4.047,4.044,4.046,4.045,0,0,0,77.81,29.06357376468,-1.36970476824,0,,
62550,2011-02-07 16:45:58,-3.1117379,107.9423609,-2.73941609816,,,27.69386243476,0,0.0223694,0.77297902736,0.80764766364,6,0,32.5112,30.43327853292,0,0.0447388,0.77297902736,0,0,0,86.9, 84.4, 133.2,0,0,1024,1024,1024,1024,0,0,0,0,0,0,0,100,4.047,4.044,4.046,4.045,0,0,0,77.81,27.69386243476,-2.73941609816,0,,
62750,2011-02-07 16:45:58,-3.1117379,107.9423609,-2.73941609816,,,27.69386243476,0,0.0223694,0.77297902736,0.80764766364,6,0,32.5112,30.43327853292,0,0.0447388,0.77297902736,0,0,0,86.9, 84.4, 133.2,0,0,1024,1024,1024,1024,0,0,0,0,0,0,0,100,4.047,4.044,4.046,4.045,0,0,0,77.81,27.69386243476,-2.73941609816,0,,
62950,2011-02-07 16:45:58,-3.1117383,107.9423611,-1.91585964136,,,28.51741889156,0,0.0447388,0.93501315328,0.97076446676,6,0,32.5112,30.43327853292,0,0.0447388,0.93501315328,0,0,0,86.9, 84.4, 133.2,0,0,1024,1024,1024,1024,0,0,0,0,0,0,0,100,4.047,4.044,4.046,4.045,0,0,0,77.81,28.51741889156,-1.91585964136,0,,
63150,2011-02-07 16:45:58,-3.1117384,107.942361,-1.91585964136,,,28.51741889156,0,0.0447388,0.95755580492,1.0223261482,6,0,32.4935,30.43327853292,0,0.0447388,0.95755580492,0,0,0,86.9, 84.4, 133.2,0,0,1024,1024,1024,1024,0,0,0,0,0,0,0,100,4.047,4.044,4.046,4.045,0,0,0,77.81,28.51741889156,-1.91585964136,0,,
63350,2011-02-07 16:45:59,-3.1117386,107.942361,-1.91585964136,,,28.51741889156,0,0.0447388,1.02730318248,1.09529531064,6,0,32.4935,30.43327853292,0,0.0447388,1.02730318248,0,0,0,86.9, 84.4, 133.2,0,0,1024,1024,1024,1024,0,0,0,0,0,0,0,100,4.047,4.044,4.046,4.045,0,0,0,77.81,28.51741889156,-1.91585964136,0,,
63550,2011-02-07 16:45:59,-3.1117387,107.942361,-1.91585964136,,,28.51741889156,0,0.0223694,1.06233927284,1.13178153228,6,0,32.4935,30.43327853292,0,0.0447388,1.06233927284,0,0,0,86.9, 84.4, 133.2,0,0,1024,1024,1024,1024,0,0,0,0,0,0,0,100,4.047,4.044,4.046,4.045,0,0,0,77.81,28.51741889156,-1.91585964136,0,,
63750,2011-02-07 16:45:59,-3.1117387,107.942361,-0.5461450306,,,29.88713350232,0,0.0223694,1.06233927284,1.13178153228,6,0,32.4935,30.43327853292,0,0.0447388,1.06233927284,0,0,0,86.9, 84.4, 133.2,0,0,1024,1024,1024,1024,0,0,0,0,0,0,0,100,4.047,4.044,4.046,4.045,0,0,0,77.81,29.88713350232,-0.5461450306,0,,
63950,2011-02-07 16:45:59,-3.111739,107.942361,0,,,30.43327853292,0,0,1.16797904,1.24123363552,6,0,32.4935,30.43327853292,0,0.0447388,1.16797904,0,0,0,86.8, 84.4, 133.2,0,0,1024,1024,1024,1024,0,0,0,0,0,0,0,100,4.047,4.044,4.046,4.045,0,0,0,77.81,30.43327853292,0,0,,
64150,2011-02-07 16:45:59,-3.1117391,107.9423609,0,,,30.43327853292,0,0.0223694,1.19504597,1.29279531696,6,0,32.4848,30.43327853292,0,0.0447388,1.19504597,0,0,0,86.8, 84.4, 133.2,0,0,1024,1024,1024,1024,0,0,0,0,0,0,0,100,4.046,4.044,4.046,4.045,0,0,0,77.81,30.43327853292,0,0,,
64350,2011-02-07 16:46:00,-3.1117393,107.942361,-1.10095804048,,,29.33232049244,0,0.0223694,1.27426513264,1.37435371852,6,0,32.4848,30.43327853292,0,0.0447388,1.27426513264,0,0,0,86.8, 84.4, 133.1,0,0,1024,1024,1024,1024,0,0,0,0,0,0,0,100,4.046,4.044,4.046,4.045,0,0,0,77.81,29.33232049244,-1.10095804048,0,,
64550,2011-02-07 16:46:00,-3.1117395,107.9423611,-1.10095804048,,,29.33232049244,0,0.0223694,1.35376316668,1.45591212008,6,0,32.4848,30.43327853292,0,0.0447388,1.35376316668,0,0,0,86.7, 84.4, 133.1,0,0,1024,1024,1024,1024,0,0,0,0,0,0,0,100,4.046,4.044,4.046,4.045,0,0,0,77.81,29.33232049244,-1.10095804048,0,,
64750,2011-02-07 16:46:00,-3.1117395,107.9423611,0,,,30.43327853292,0,0.0223694,1.35376316668,1.45591212008,6,0,32.4848,30.43327853292,0,0.0447388,1.35376316668,0,0,0,86.7, 84.4, 133.1,0,0,1024,1024,1024,1024,0,0,0,0,0,0,0,100,4.046,4.044,4.046,4.045,0,0,0,77.81,30.43327853292,0,0,,
64950,2011-02-07 16:46:00,-3.1117397,107.9423612,0,,,30.43327853292,0,0.0447388,1.43349414036,1.53747052164,6,0,32.4848,30.43327853292,0,0.0447388,1.43349414036,0,0,0,86.7, 84.4, 133.1,0,0,1024,1024,1024,1024,0,0,0,0,0,0,0,100,4.046,4.044,4.046,4.045,0,0,0,77.81,30.43327853292,0,0,,
65150,2011-02-07 16:46:00,-3.1117398,107.9423612,-1.10095804048,,,29.33232049244,0,0.0447388,1.46880910212,1.57395674328,6,0,32.5022,30.43327853292,0,0.0447388,1.46880910212,0,0,0,86.7, 84.4, 133.1,0,0,1024,1024,1024,1024,0,0,0,0,0,0,0,100,4.046,4.044,4.046,4.046,0,0,0,77.81,29.33232049244,-1.10095804048,0,,
65350,2011-02-07 16:46:01,-3.1117399,107.9423612,-0.27740158368,,,30.15587694924,0,0.0223694,1.504183119,1.61043968408,6,0,32.5022,30.43327853292,0,0.0447388,1.504183119,0,0,0,86.7, 84.4, 133.1,0,0,1024,1024,1024,1024,0,0,0,0,0,0,0,100,4.046,4.044,4.046,4.046,0,0,0,77.81,30.15587694924,-0.27740158368,0,,
65550,2011-02-07 16:46:01,-3.11174,107.9423611,-0.27740158368,,,30.15587694924,0,0.0671082,1.53139440596,1.66200136552,6,0,32.5022,30.43327853292,0,0.0671082,1.53139440596,0,0,0,86.8, 84.4, 133.1,0,0,1024,1024,1024,1024,0,0,0,0,0,0,0,100,4.046,4.044,4.046,4.046,0,0,0,77.81,30.15587694924,-0.27740158368,0,,
65750,2011-02-07 16:46:01,-3.11174,107.9423611,-1.10095804048,,,29.33232049244,0,0.0671082,1.53139440596,1.66200136552,6,0,32.5022,30.43327853292,0,0.0671082,1.53139440596,0,0,0,86.8, 84.4, 133.1,0,0,1024,1024,1024,1024,0,0,0,0,0,0,0,100,4.046,4.044,4.046,4.046,0,0,0,77.81,29.33232049244,-1.10095804048,0,,
65950,2011-02-07 16:46:01,-3.1117403,107.9423612,-1.63844821516,,,28.79483031776,0,0,1.64615490832,1.77735898076,6,0,32.5022,30.43327853292,0,0.0671082,1.64615490832,0,0,0,86.8, 84.4, 133.1,0,0,1024,1024,1024,1024,0,0,0,0,0,0,0,100,4.046,4.044,4.046,4.046,0,0,0,77.81,28.79483031776,-1.63844821516,0,,
66150,2011-02-07 16:46:01,-3.1117404,107.9423613,-1.36970476824,,,29.06357376468,0,0.0447388,1.69002301996,1.82891738136,6,0,32.5198,30.43327853292,0,0.0671082,1.69002301996,0,0,0,86.8, 84.4, 133.1,0,0,1024,1024,1024,1024,0,0,0,0,0,0,0,100,4.046,4.044,4.046,4.046,0,0,0,77.81,29.06357376468,-1.36970476824,0,,
66350,2011-02-07 16:46:02,-3.1117404,107.9423613,-1.36970476824,,,29.06357376468,0,0.0223694,1.69002301996,1.82891738136,6,0,32.5198,30.43327853292,0,0.0671082,1.69002301996,0,0,0,86.7, 84.4, 133.1,0,0,1024,1024,1024,1024,0,0,0,0,0,0,0,100,4.046,4.044,4.046,4.046,0,0,0,77.81,29.06357376468,-1.36970476824,0,,
66550,2011-02-07 16:46:02,-3.1117405,107.9423614,-0.5461450306,,,29.88713350232,0,0.0223694,1.73431107912,1.8804790628,6,0,32.5198,30.43327853292,0,0.0671082,1.73431107912,0,0,0,86.7, 84.4, 133.1,0,0,1024,1024,1024,1024,0,0,0,0,0,0,0,100,4.046,4.044,4.046,4.046,0,0,0,77.81,29.88713350232,-0.5461450306,0,,
66750,2011-02-07 16:46:02,-3.1117405,107.9423614,-0.5461450306,,,29.88713350232,0,0.0223694,1.73431107912,1.8804790628,6,0,32.5198,30.43327853292,0,0.0671082,1.73431107912,0,0,0,86.7, 84.4, 133.1,0,0,1024,1024,1024,1024,0,0,0,0,0,0,0,100,4.046,4.044,4.046,4.046,0,0,0,77.81,29.88713350232,-0.5461450306,0,,
66940,2023-02-01 03:00:33,-3.1117405,107.9423614,-1.63844821516,,,28.79483031776,0,0.0447388,1.73431107912,1.8804790628,6,0,32.5198,30.43327853292,0,0.0671082,1.73431107912,0,0,0,86.7, 84.4, 133,0,0,1024,1024,1024,1024,0,0,0,0,0,0,0,100,4.046,4.044,4.046,4.046,0,0,0,77.81,28.79483031776,-1.63844821516,0,,
67150,2023-02-01 03:00:33,-3.1117406,107.9423614,-1.36970476824,,,29.06357376468,0,0.0447388,0.036484909304,1.9169620036,6,0,32.5021,30.43327853292,0,0.0671082,1.73431107912,0,0,0,86.7, 84.4, 133,0,0,1024,1024,1024,1024,0,0,0,0,0,0,0,100,4.046,4.044,4.046,4.045,0,0,0,77.81,29.06357376468,-1.36970476824,0,,
67350,2023-02-01 03:00:33,-3.1117405,107.9423614,-0.8235564568,,,29.60972207612,0,0.0447388,0,1.95344822524,6,0,32.5021,30.43327853292,0,0.0671082,1.73431107912,0,0,0,86.7, 84.4, 133.1,0,0,1024,1024,1024,1024,0,0,0,0,0,0,0,100,4.046,4.044,4.046,4.045,0,0,0,77.81,29.60972207612,-0.8235564568,0,,
67550,2023-02-01 03:00:34,-3.1117405,107.9423614,-1.63844821516,,,28.79483031776,0,0.0447388,0,1.95344822524,6,0,32.5021,30.43327853292,0,0.0671082,1.73431107912,0,0,0,86.7, 84.4, 133.1,0,0,1024,1024,1024,1024,0,0,0,0,0,0,0,100,4.046,4.044,4.046,4.045,0,0,0,77.81,28.79483031776,-1.63844821516,0,,
67750,2023-02-01 03:00:34,-3.1117405,107.9423614,-1.63844821516,,,28.79483031776,0,0.0447388,0,1.95344822524,6,0,32.5021,30.43327853292,0,0.0671082,1.73431107912,0,0,0,86.7, 84.4, 133.1,0,0,1024,1024,1024,1024,0,0,0,0,0,0,0,100,4.046,4.044,4.046,4.045,0,0,0,77.81,28.79483031776,-1.63844821516,0,,
67950,2023-02-01 03:00:34,-3.1117406,107.9423616,-1.10095804048,,,29.33232049244,0,0.0894776,0.081486551164,2.03493444832,5,0,32.5021,30.43327853292,0,0.0894776,1.73431107912,0,0,0,86.8, 84.4, 133.1,0,0,1024,1024,1024,1024,0,0,0,0,0,0,0,100,4.046,4.044,4.046,4.045,0,0,0,77.81,29.33232049244,-1.10095804048,0,,
68150,2023-02-01 03:00:34,-3.1117408,107.942362,-1.10095804048,,,29.33232049244,0,0.0894776,0.244459653492,2.19790689448,5,0,32.485,30.43327853292,0,0.0894776,1.73431107912,0,0,0,86.8, 84.4, 133.1,0,0,1024,1024,1024,1024,0,0,0,0,0,0,0,100,4.047,4.044,4.046,4.045,0,0,0,77.81,29.33232049244,-1.10095804048,0,,
68350,2023-02-01 03:00:34,-3.1117409,107.9423621,-0.5461450306,,,29.88713350232,0,0.0894776,0.293824156384,2.24946529508,5,0,32.485,30.43327853292,0,0.0894776,1.73431107912,0,0,0,86.8, 84.4, 133.2,0,0,1024,1024,1024,1024,0,0,0,0,0,0,0,100,4.047,4.044,4.046,4.045,0,0,0,77.81,29.88713350232,-0.5461450306,0,,
68550,2023-02-01 03:00:35,-3.111741,107.9423623,-0.5461450306,,,29.88713350232,0,0.111847,0.3752132666,2.330954799,5,0,32.485,30.43327853292,0,0.111847,1.73431107912,0,0,0,86.8, 84.4, 133.1,0,0,1024,1024,1024,1024,0,0,0,0,0,0,0,100,4.047,4.044,4.046,4.045,0,0,0,77.81,29.88713350232,-0.5461450306,0,,
68750,2023-02-01 03:00:35,-3.111741,107.9423623,-0.27740158368,,,30.15587694924,0,0.111847,0.3752132666,2.330954799,5,0,32.485,30.43327853292,0,0.111847,1.73431107912,0,0,0,86.8, 84.4, 133.1,0,0,1024,1024,1024,1024,0,0,0,0,0,0,0,100,4.047,4.044,4.046,4.045,0,0,0,77.81,30.15587694924,-0.27740158368,0,,
68950,2023-02-01 03:00:35,-3.1117411,107.9423627,-1.10095804048,,,29.33232049244,0,0.0447388,0.52174870436,2.48117462008,5,0,32.485,30.43327853292,0,0.111847,1.73431107912,0,0,0,86.7, 84.4, 133.1,0,0,1024,1024,1024,1024,0,0,0,0,0,0,0,100,4.047,4.044,4.046,4.045,0,0,0,77.81,29.33232049244,-1.10095804048,0,,
69150,2023-02-01 03:00:35,-3.1117411,107.9423628,-0.8235564568,,,29.60972207612,0,0.0894776,0.55502954532,2.51760834828,5,0,32.5111,30.43327853292,0,0.111847,1.73431107912,0,0,0,86.7, 84.4, 133.1,0,0,1024,1024,1024,1024,0,0,0,0,0,0,0,100,4.046,4.044,4.046,4.045,0,0,0,77.81,29.60972207612,-0.8235564568,0,,
69350,2023-02-01 03:00:35,-3.1117412,107.942363,-0.8235564568,,,29.60972207612,0,0.111847,0.63639437732,2.59909457136,5,0,32.5111,30.43327853292,0,0.111847,1.73431107912,0,0,0,86.8, 84.4, 133.1,0,0,1024,1024,1024,1024,0,0,0,0,0,0,0,100,4.046,4.044,4.046,4.045,0,0,0,77.81,29.60972207612,-0.8235564568,0,,
69550,2023-02-01 03:00:36,-3.1117412,107.9423632,-1.10095804048,,,29.33232049244,0,0.1565858,0.70374018,2.67195546608,5,0,32.5111,30.43327853292,0,0.1565858,1.73431107912,0,0,0,86.8, 84.4, 133.2,0,0,1024,1024,1024,1024,0,0,0,0,0,0,0,100,4.046,4.044,4.046,4.045,0,0,0,77.81,29.33232049244,-1.10095804048,0,,
69750,2023-02-01 03:00:36,-3.1117412,107.9423632,-0.5461450306,,,29.88713350232,0,0.1565858,0.70374018,2.67195546608,5,0,32.5111,30.43327853292,0,0.1565858,1.73431107912,0,0,0,86.9, 84.4, 133.2,0,0,1024,1024,1024,1024,0,0,0,0,0,0,0,100,4.046,4.044,4.046,4.045,0,0,0,77.81,29.88713350232,-0.5461450306,0,,
69950,2023-02-01 03:00:36,-3.1117413,107.9423633,-1.36970476824,,,29.06357376468,0,0.0894776,0.7512139348,2.72351386668,5,0,32.5111,30.43327853292,0,0.1565858,1.73431107912,0,0,0,86.9, 84.4, 133.2,0,0,1024,1024,1024,1024,0,0,0,0,0,0,0,100,4.046,4.044,4.046,4.045,0,0,0,77.81,29.06357376468,-1.36970476824,0,,
70150,2023-02-01 03:00:36,-3.1117414,107.9423634,-1.36970476824,,,29.06357376468,0,0.1342164,0.7991962198,2.77507554812,5,0,32.5026,30.43327853292,0,0.1565858,1.73431107912,0,0,0,86.9, 84.4, 133.2,0,0,1024,1024,1024,1024,0,0,0,0,0,0,0,100,4.047,4.044,4.046,4.045,0,0,0,77.81,29.06357376468,-1.36970476824,0,,
70350,2023-02-01 03:00:36,-3.1117415,107.9423634,-0.8235564568,,,29.60972207612,0,0.0894776,0.81486551164,2.81155848892,5,0,32.5026,30.43327853292,0,0.1565858,1.73431107912,0,0,0,86.9, 84.4, 133.3,0,0,1024,1024,1024,1024,0,0,0,0,0,0,0,100,4.047,4.044,4.046,4.045,0,0,0,77.81,29.60972207612,-0.8235564568,0,,
70550,2023-02-01 03:00:37,-3.1117416,107.9423635,-0.8235564568,,,29.60972207612,0,0.0447388,0.86393047384,2.86312017036,5,0,32.5026,30.43327853292,0,0.1565858,1.73431107912,0,0,0,86.9, 84.4, 133.3,0,0,1024,1024,1024,1024,0,0,0,0,0,0,0,100,4.047,4.044,4.046,4.045,0,0,0,77.81,29.60972207612,-0.8235564568,0,,
70750,2023-02-01 03:00:37,-3.1117416,107.9423635,-0.5461450306,,,29.88713350232,0,0.0447388,0.86393047384,2.86312017036,5,0,32.5026,30.43327853292,0,0.1565858,1.73431107912,0,0,0,86.9, 84.5, 133.3,0,0,1024,1024,1024,1024,0,0,0,0,0,0,0,100,4.047,4.044,4.046,4.045,0,0,0,77.81,29.88713350232,-0.5461450306,0,,
70950,2023-02-01 03:00:37,-3.1117419,107.9423638,-1.36970476824,,,29.06357376468,0,0,1.0126148618,3.017798653,5,0,32.5026,30.43327853292,0,0.1565858,1.73431107912,0,0,0,86.9, 84.4, 133.3,0,0,1024,1024,1024,1024,0,0,0,0,0,0,0,100,4.047,4.044,4.046,4.045,0,0,0,77.81,29.06357376468,-1.36970476824,0,,
71160,2023-02-01 03:00:37,-3.111742,107.942364,-1.36970476824,,,29.06357376468,0,0.0447388,1.09394360456,3.09928487608,5,0,32.5023,30.43327853292,0,0.1565858,1.73431107912,0,0,0,86.9, 84.5, 133.3,0,0,1024,1024,1024,1024,0,0,0,0,0,0,0,100,4.047,4.044,4.047,4.045,0,0,0,77.81,29.06357376468,-1.36970476824,0,,
71350,2023-02-01 03:00:37,-3.1117418,107.9423638,-1.36970476824,,,29.06357376468,0,0.0223694,0.99471131792,3.20240167728,5,0,32.5023,30.43327853292,0,0.1565858,1.73431107912,0,0,0,86.9, 84.4, 133.2,0,0,1024,1024,1024,1024,0,0,0,0,0,0,0,100,4.047,4.044,4.047,4.045,0,0,0,77.81,29.06357376468,-1.36970476824,0,,
71550,2023-02-01 03:00:38,-3.1117412,107.9423632,-0.8235564568,,,29.60972207612,0,0,0.70374018,3.5117455192,5,0,32.5023,30.43327853292,0,0.1565858,1.73431107912,0,0,0,86.9, 84.5, 133.2,0,0,1024,1024,1024,1024,0,0,0,0,0,0,0,100,4.047,4.044,4.047,4.045,0,0,0,77.81,29.60972207612,-0.8235564568,0,,
71750,2023-02-01 03:00:38,-3.1117412,107.9423632,-0.8235564568,,,29.60972207612,0,0,0.70374018,3.5117455192,5,0,32.5023,30.43327853292,0,0.1565858,1.73431107912,0,0,0,86.9, 84.5, 133.3,0,0,1024,1024,1024,1024,0,0,0,0,0,0,0,100,4.047,4.044,4.047,4.045,0,0,0,77.81,29.60972207612,-0.8235564568,0,,
71950,2023-02-01 03:00:38,-3.1117397,107.9423619,-0.27740158368,,,30.15587694924,0,0.0447388,0.34405512912,4.2354988232,5,0,32.5023,30.43327853292,0,0.1565858,1.73431107912,0,0,0,86.9, 84.5, 133.3,0,0,1024,1024,1024,1024,0,0,0,0,0,0,0,100,4.047,4.044,4.047,4.045,0,0,0,77.81,30.15587694924,-0.27740158368,0,,
72150,2023-02-01 03:00:38,-3.1117389,107.9423611,-0.27740158368,,,30.15587694924,0,0.0447388,0.59390093764,4.6479988364,5,0,32.5111,30.43327853292,0,0.1565858,1.73431107912,0,0,0,86.9, 84.5, 133.3,0,0,1024,1024,1024,1024,0,0,0,0,0,0,0,100,4.046,4.044,4.047,4.045,0,0,0,77.81,30.15587694924,-0.27740158368,0,,
72350,2023-02-01 03:00:38,-3.1117382,107.9423606,-1.10095804048,,,29.33232049244,0,0.0671082,0.88832351924,4.9616799488,5,0,32.5111,30.43327853292,0,0.1565858,1.73431107912,0,0,0,86.9, 84.5, 133.3,0,0,1024,1024,1024,1024,0,0,0,0,0,0,0,100,4.046,4.044,4.047,4.045,0,0,0,77.81,29.33232049244,-1.10095804048,0,,
72550,2023-02-01 03:00:39,-3.1117376,107.9423599,-1.10095804048,,,29.33232049244,0,0.0223694,1.19084977564,5.2977691984,5,0,32.5111,30.43327853292,0,0.1565858,1.73431107912,0,0,0,87, 84.5, 133.3,0,0,1024,1024,1024,1024,0,0,0,0,0,0,0,100,4.046,4.044,4.047,4.045,0,0,0,77.81,29.33232049244,-1.10095804048,0,,
72750,2023-02-01 03:00:39,-3.1117376,107.9423599,-1.10095804048,,,29.33232049244,0,0.0223694,1.19084977564,5.2977691984,5,0,32.5111,30.43327853292,0,0.1565858,1.73431107912,0,0,0,86.9, 84.5, 133.3,0,0,1024,1024,1024,1024,0,0,0,0,0,0,0,100,4.046,4.044,4.047,4.045,0,0,0,77.81,29.33232049244,-1.10095804048,0,,
72950,2023-02-01 03:00:39,-3.1117367,107.9423587,-1.10095804048,,,29.33232049244,0,0.0223694,1.69992131424,5.8445211844,6,0,32.5111,30.43327853292,0,0.1565858,1.73431107912,0,0,0,87, 84.5, 133.3,0,0,1024,1024,1024,1024,0,0,0,0,0,0,0,100,4.046,4.044,4.047,4.045,0,0,0,77.81,29.33232049244,-1.10095804048,0,,
73150,2023-02-01 03:00:39,-3.1117365,107.9423583,-0.5461450306,,,29.88713350232,0,0.0223694,1.84534782808,6.0075133156,6,0,32.4935,30.43327853292,0,0.1565858,1.84534782808,0,0,0,87, 84.5, 133.3,0,0,1024,1024,1024,1024,0,0,0,0,0,0,0,100,4.046,4.044,4.047,4.045,0,0,0,77.81,29.88713350232,-0.5461450306,0,,
73350,2023-02-01 03:00:39,-3.1117364,107.942358,-2.47067265124,,,27.96260588168,0,0.0223694,1.94214901228,6.1227364164,6,0,32.4935,30.43327853292,0,0.1565858,1.94214901228,0,0,0,87, 84.5, 133.3,0,0,1024,1024,1024,1024,0,0,0,0,0,0,0,100,4.046,4.044,4.047,4.045,0,0,0,77.81,27.96260588168,-2.47067265124,0,,
73550,2023-02-01 03:00:40,-3.1117363,107.9423577,-2.47067265124,,,27.96260588168,0,0,2.0408629262,6.2379595172,6,0,32.4935,30.43327853292,0,0.1565858,2.0408629262,0,0,0,87, 84.5, 133.3,0,0,1024,1024,1024,1024,0,0,0,0,0,0,0,100,4.046,4.044,4.047,4.045,0,0,0,77.81,27.96260588168,-2.47067265124,0,,
73750,2023-02-01 03:00:40,-3.1117363,107.9423577,-1.91585964136,,,28.51741889156,0,0,2.0408629262,6.2379595172,6,0,32.4935,30.43327853292,0,0.1565858,2.0408629262,0,0,0,87, 84.5, 133.3,0,0,1024,1024,1024,1024,0,0,0,0,0,0,0,100,4.046,4.044,4.047,4.045,0,0,0,77.81,28.51741889156,-1.91585964136,0,,
73950,2023-02-01 03:00:40,-3.1117362,107.9423572,-1.91585964136,,,28.51741889156,0,0,2.19146660556,6.423720678,6,0,32.4935,30.43327853292,0,0.1565858,2.19146660556,0,0,0,87, 84.5, 133.4,0,0,1024,1024,1024,1024,0,0,0,0,0,0,0,100,4.046,4.044,4.047,4.045,0,0,0,77.81,28.51741889156,-1.91585964136,0,,
74150,2023-02-01 03:00:40,-3.1117362,107.942357,-1.91585964136,,,28.51741889156,0,0.0223694,2.242946266,6.4965881344,6,0,32.4849,30.43327853292,0,0.1565858,2.242946266,0,0,0,87, 84.5, 133.3,0,0,1024,1024,1024,1024,0,0,0,0,0,0,0,100,4.046,4.044,4.046,4.044,0,0,0,77.81,28.51741889156,-1.91585964136,0,,
74350,2023-02-01 03:00:40,-3.1117361,107.9423566,-2.47067265124,,,27.96260588168,0,0.0223694,2.37382553528,6.646817798,6,0,32.4849,30.43327853292,0,0.1565858,2.37382553528,0,0,0,87, 84.5, 133.3,0,0,1024,1024,1024,1024,0,0,0,0,0,0,0,100,4.046,4.044,4.046,4.044,0,0,0,77.81,27.96260588168,-2.47067265124,0,,
74550,2023-02-01 03:00:41,-3.1117359,107.9423561,-2.47067265124,,,27.96260588168,0,0,2.5583006068,6.8430448384,6,0,32.4849,30.43327853292,0,0.1565858,2.5583006068,0,0,0,87, 84.4, 133.3,0,0,1024,1024,1024,1024,0,0,0,0,0,0,0,100,4.046,4.044,4.046,4.044,0,0,0,77.81,27.96260588168,-2.47067265124,0,,
74750,2023-02-01 03:00:41,-3.1117359,107.9423561,-1.36970476824,,,29.06357376468,0,0,2.5583006068,6.8430448384,6,0,32.4849,30.43327853292,0,0.1565858,2.5583006068,0,0,0,87, 84.4, 133.3,0,0,1024,1024,1024,1024,0,0,0,0,0,0,0,100,4.046,4.044,4.046,4.044,0,0,0,77.81,29.06357376468,-1.36970476824,0,,
74950,2023-02-01 03:00:41,-3.1117353,107.9423551,-1.36970476824,,,29.06357376468,0,0.0223694,2.97778552836,7.268044852,6,0,32.4849,30.43327853292,0,0.1565858,2.97778552836,0,0,0,87, 84.4, 133.3,0,0,1024,1024,1024,1024,0,0,0,0,0,0,0,100,4.046,4.044,4.046,4.044,0,0,0,77.81,29.06357376468,-1.36970476824,0,,
75150,2023-02-01 03:00:41,-3.1117351,107.9423546,-2.19326122504,,,28.24001730788,0,0.0223694,3.1652396026,7.4642718924,6,0,32.5111,30.43327853292,0,0.1565858,3.1652396026,0,0,0,87, 84.5, 133.3,0,0,1024,1024,1024,1024,0,0,0,0,0,0,0,100,4.046,4.044,4.046,4.045,0,0,0,77.81,28.24001730788,-2.19326122504,0,,
75350,2023-02-01 03:00:41,-3.1117348,107.9423541,-2.19326122504,,,28.24001730788,0,0.0223694,3.3760499768,7.6768047076,6,0,32.5111,30.43327853292,0,0.1565858,3.3760499768,0,0,0,87, 84.5, 133.3,0,0,1024,1024,1024,1024,0,0,0,0,0,0,0,100,4.046,4.044,4.046,4.045,0,0,0,77.81,28.24001730788,-2.19326122504,0,,
75550,2023-02-01 03:00:42,-3.1117345,107.9423536,0,,,30.43327853292,0,0,3.5870736056,7.8893047144,6,0,32.5111,30.43327853292,0,0.1565858,3.5870736056,0,0,0,87, 84.5, 133.4,0,0,1024,1024,1024,1024,0,0,0,0,0,0,0,100,4.046,4.044,4.046,4.045,0,0,0,77.81,30.43327853292,0,0,,
75750,2023-02-01 03:00:42,-3.1117345,107.9423536,0,,,30.43327853292,0,0,3.5870736056,7.8893047144,6,0,32.5111,30.43327853292,0,0.1565858,3.5870736056,0,0,0,87.1, 84.5, 133.4,0,0,1024,1024,1024,1024,0,0,0,0,0,0,0,100,4.046,4.044,4.046,4.045,0,0,0,77.81,30.43327853292,0,0,,
75950,2023-02-01 03:00:42,-3.1117339,107.9423525,-0.5461450306,,,29.88713350232,0,0,4.0387468484,8.3459320256,6,0,32.5111,30.43327853292,0,0.1565858,4.0387468484,0,0,0,87.1, 84.5, 133.4,0,0,1024,1024,1024,1024,0,0,0,0,0,0,0,100,4.046,4.044,4.046,4.045,0,0,0,77.81,29.88713350232,-0.5461450306,0,,
76150,2023-02-01 03:00:42,-3.1117335,107.942352,-0.27740158368,,,30.15587694924,0,0.0223694,4.2720145724,8.5793637916,6,0,32.4935,30.43327853292,0,0.1565858,4.2720145724,0,0,0,87, 84.5, 133.4,0,0,1024,1024,1024,1024,0,0,0,0,0,0,0,100,4.046,4.044,4.046,4.045,0,0,0,77.81,30.15587694924,-0.27740158368,0,,
76350,2023-02-01 03:00:42,-3.1117332,107.9423515,-0.27740158368,,,30.15587694924,0,0.0223694,4.4834975188,8.7918637984,6,0,32.4935,30.43327853292,0,0.1565858,4.4834975188,0,0,0,87, 84.5, 133.3,0,0,1024,1024,1024,1024,0,0,0,0,0,0,0,100,4.046,4.044,4.046,4.045,0,0,0,77.81,30.15587694924,-0.27740158368,0,,
76550,2023-02-01 03:00:43,-3.1117329,107.942351,-0.8235564568,,,29.60972207612,0,0.0223694,4.6951116988,9.0043638052,6,0,32.4935,30.43327853292,0,0.1565858,4.6951116988,0,0,0,87, 84.5, 133.4,0,0,1024,1024,1024,1024,0,0,0,0,0,0,0,100,4.046,4.044,4.046,4.045,0,0,0,77.81,29.60972207612,-0.8235564568,0,,
76750,2023-02-01 03:00:43,-3.1117329,107.942351,-0.27740158368,,,30.15587694924,0,0.0223694,4.6951116988,9.0043638052,6,0,32.4935,30.43327853292,0,0.1565858,4.6951116988,0,0,0,87, 84.5, 133.4,0,0,1024,1024,1024,1024,0,0,0,0,0,0,0,100,4.046,4.044,4.046,4.045,0,0,0,77.81,30.15587694924,-0.27740158368,0,,
76950,2023-02-01 03:00:43,-3.1117321,107.9423498,-0.27740158368,,,30.15587694924,0,0.0223694,5.220308566,9.53001999,6,0,32.4935,30.43327853292,0,0.1565858,5.220308566,0,0,0,87.1, 84.5, 133.4,0,0,1024,1024,1024,1024,0,0,0,0,0,0,0,100,4.046,4.044,4.046,4.045,0,0,0,77.81,30.15587694924,-0.27740158368,0,,
77150,2023-02-01 03:00:43,-3.1117315,107.9423491,-1.91585964136,,,28.51741889156,0,0.0223694,5.5553479468,9.8661092396,6,0,32.5026,30.43327853292,0,0.1565858,5.5553479468,0,0,0,87.1, 84.5, 133.4,0,0,1024,1024,1024,1024,0,0,0,0,0,0,0,100,4.046,4.044,4.046,4.045,0,0,0,77.81,28.51741889156,-1.91585964136,0,,
77350,2023-02-01 03:00:43,-3.1117309,107.9423483,-2.47067265124,,,27.96260588168,0,0.0447388,5.9198492708,10.2306105636,6,0,32.5026,30.43327853292,0,0.1565858,5.9198492708,0,0,0,87.1, 84.5, 133.4,0,0,1024,1024,1024,1024,0,0,0,0,0,0,0,100,4.046,4.044,4.046,4.045,0,0,0,77.81,27.96260588168,-2.47067265124,0,,
77550,2023-02-01 03:00:44,-3.1117303,107.9423476,-0.8235564568,,,29.60972207612,0,0.0223694,6.2549870768,10.5666998132,6,0,32.5026,30.43327853292,0,0.1565858,6.2549870768,0,0,0,87, 84.5, 133.4,0,0,1024,1024,1024,1024,0,0,0,0,0,0,0,100,4.046,4.044,4.046,4.045,0,0,0,77.81,29.60972207612,-0.8235564568,0,,
77750,2023-02-01 03:00:44,-3.1117303,107.9423476,-0.8235564568,,,29.60972207612,0,0.0223694,6.2549870768,10.5666998132,6,0,32.5026,30.43327853292,0,0.1565858,6.2549870768,0,0,0,87, 84.5, 133.4,0,0,1024,1024,1024,1024,0,0,0,0,0,0,0,100,4.046,4.044,4.046,4.045,0,0,0,77.81,29.60972207612,-0.8235564568,0,,
77950,2023-02-01 03:00:44,-3.1117291,107.9423464,-1.63844821516,,,28.79483031776,0,0.0223694,6.8674870964,11.1854334288,6,0,32.5026,30.43327853292,0,0.1565858,6.8674870964,0,0,0,87, 84.5, 133.4,0,0,1024,1024,1024,1024,0,0,0,0,0,0,0,100,4.046,4.044,4.046,4.045,0,0,0,77.81,28.79483031776,-1.63844821516,0,,
78150,2023-02-01 03:00:44,-3.1117286,107.9423458,-1.63844821516,,,28.79483031776,0,0.0223694,7.151903116,11.470144724,6,0,32.5022,30.43327853292,0,0.1565858,7.151903116,0,0,0,87, 84.5, 133.4,0,0,1024,1024,1024,1024,0,0,0,0,0,0,0,100,4.046,4.045,4.046,4.045,0,0,0,77.81,28.79483031776,-1.63844821516,0,,
78350,2023-02-01 03:00:44,-3.111728,107.9423451,-1.63844821516,,,28.79483031776,0,0.0447388,7.4874674312,11.8062339736,6,0,32.5022,30.43327853292,0,0.1565858,7.4874674312,0,0,0,87, 84.5, 133.4,0,0,1024,1024,1024,1024,0,0,0,0,0,0,0,100,4.046,4.045,4.046,4.045,0,0,0,77.81,28.79483031776,-1.63844821516,0,,
78550,2023-02-01 03:00:45,-3.1117275,107.9423446,-1.63844821516,,,28.79483031776,0,0,7.7431432924,12.0640095724,6,0,32.5022,30.43327853292,0,0.1565858,7.7431432924,0,0,0,87, 84.5, 133.4,0,0,1024,1024,1024,1024,0,0,0,0,0,0,0,100,4.046,4.045,4.046,4.045,0,0,0,77.81,28.79483031776,-1.63844821516,0,,
78750,2023-02-01 03:00:45,-3.1117275,107.9423446,-1.36970476824,,,29.06357376468,0,0,7.7431432924,12.0640095724,6,0,32.5022,30.43327853292,0,0.1565858,7.7431432924,0,0,0,87, 84.5, 133.4,0,0,1024,1024,1024,1024,0,0,0,0,0,0,0,100,4.046,4.045,4.046,4.045,0,0,0,77.81,29.06357376468,-1.36970476824,0,,
78950,2023-02-01 03:00:45,-3.1117264,107.9423435,-1.36970476824,,,29.06357376468,0,0.0223694,8.3060370112,12.6311683832,6,0,32.5022,30.43327853292,0,0.1565858,8.3060370112,0,0,0,87, 84.5, 133.3,0,0,1024,1024,1024,1024,0,0,0,0,0,0,0,100,4.046,4.045,4.046,4.045,0,0,0,77.81,29.06357376468,-1.36970476824,0,,
79150,2023-02-01 03:00:45,-3.1117259,107.942343,-1.36970476824,,,29.06357376468,0,0,8.5621065732,12.8889767904,6,0,32.5198,30.43327853292,0,0.1565858,8.5621065732,0,0,0,87, 84.5, 133.3,0,0,1024,1024,1024,1024,0,0,0,0,0,0,0,100,4.046,4.045,4.046,4.045,0,0,0,77.81,29.06357376468,-1.36970476824,0,,
79350,2023-02-01 03:00:45,-3.1117254,107.9423425,-1.36970476824,,,29.06357376468,0,0.0223694,8.818241752,13.1467523892,6,0,32.5198,30.43327853292,0,0.1565858,8.818241752,0,0,0,87, 84.5, 133.3,0,0,1024,1024,1024,1024,0,0,0,0,0,0,0,100,4.046,4.045,4.046,4.045,0,0,0,77.81,29.06357376468,-1.36970476824,0,,
79550,2023-02-01 03:00:46,-3.111725,107.942342,-1.36970476824,,,29.06357376468,0,0.0223694,9.0516407096,13.3801841552,6,0,32.5198,30.43327853292,0,0.1565858,9.0516407096,0,0,0,87, 84.5, 133.4,0,0,1024,1024,1024,1024,0,0,0,0,0,0,0,100,4.046,4.045,4.046,4.045,0,0,0,77.81,29.06357376468,-1.36970476824,0,,
79750,2023-02-01 03:00:46,-3.1117245,107.9423415,-1.36970476824,,,29.06357376468,0,0.0223694,9.307907122,13.637959754,6,0,32.5198,30.43327853292,0,0.1565858,9.307907122,0,0,0,87, 84.5, 133.3,0,0,1024,1024,1024,1024,0,0,0,0,0,0,0,100,4.046,4.045,4.046,4.045,0,0,0,77.81,29.06357376468,-1.36970476824,0,,
79950,2023-02-01 03:00:46,-3.1117241,107.9423411,-1.36970476824,,,29.06357376468,0,0,9.512959622,13.8442261648,6,0,32.5198,30.43327853292,0,0.1565858,9.512959622,0,0,0,87, 84.5, 133.3,0,0,1024,1024,1024,1024,0,0,0,0,0,0,0,100,4.046,4.045,4.046,4.045,0,0,0,77.81,29.06357376468,-1.36970476824,0,,
80150,2023-02-01 03:00:46,-3.1117237,107.9423406,-1.91585964136,,,28.51741889156,0,0.0447388,9.7463585796,14.0776251224,6,0,32.3784,30.43327853292,0,0.1565858,9.7463585796,0,0,0,87, 84.5, 133.3,0,0,1024,1024,1024,1024,0,0,0,0,0,0,0,100,4.046,4.044,4.045,4.044,0,0,0,77.99,28.51741889156,-1.91585964136,0,,
80350,2023-02-01 03:00:46,-3.1117233,107.9423402,-1.91585964136,,,28.51741889156,0,0.0223694,9.9514766964,14.2838587248,6,0,32.3784,30.43327853292,0,0.1565858,9.9514766964,0,0,0,87.1, 84.5, 133.4,0,0,1024,1024,1024,1024,0,0,0,0,0,0,0,100,4.046,4.044,4.045,4.044,0,0,0,77.99,28.51741889156,-1.91585964136,0,,
80550,2023-02-01 03:00:47,-3.1117229,107.9423398,-0.27740158368,,,30.15587694924,0,0.0223694,10.1566276216,14.4900923272,6,0,32.3784,30.43327853292,0,0.1565858,10.1566276216,0,0,0,87.1, 84.5, 133.4,0,0,1024,1024,1024,1024,0,0,0,0,0,0,0,100,4.046,4.044,4.045,4.044,0,0,0,77.99,30.15587694924,-0.27740158368,0,,
80750,2023-02-01 03:00:47,-3.1117229,107.9423398,-1.10095804048,,,29.33232049244,0,0.0223694,10.1566276216,14.4900923272,6,0,32.3784,30.43327853292,0,0.1565858,10.1566276216,0,0,0,87.1, 84.5, 133.4,0,0,1024,1024,1024,1024,0,0,0,0,0,0,0,100,4.046,4.044,4.045,4.044,0,0,0,77.99,29.33232049244,-1.10095804048,0,,
80950,2023-02-01 03:00:47,-3.111722,107.942339,-1.10095804048,,,29.33232049244,0,0.0223694,10.5902562444,14.929134336,6,0,32.3784,30.43327853292,0,0.1565858,10.5902562444,0,0,0,87.1, 84.5, 133.4,0,0,1024,1024,1024,1024,0,0,0,0,0,0,0,100,4.046,4.044,4.045,4.044,0,0,0,77.99,29.33232049244,-1.10095804048,0,,
81150,2023-02-01 03:00:47,-3.1117217,107.9423386,-1.10095804048,,,29.33232049244,0,0.0223694,10.772310056,15.111384998,6,0,32.4932,30.43327853292,0,0.1565858,10.772310056,0,0,0,87.1, 84.5, 133.4,0,0,1024,1024,1024,1024,0,0,0,0,0,0,0,100,4.046,4.044,4.045,4.044,0,0,0,77.99,29.33232049244,-1.10095804048,0,,
81350,2023-02-01 03:00:47,-3.1117213,107.9423383,-1.63844821516,,,28.79483031776,0,0.0223694,10.9496066496,15.2937340852,6,0,32.4932,30.43327853292,0,0.1565858,10.9496066496,0,0,0,87.1, 84.5, 133.5,0,0,1024,1024,1024,1024,0,0,0,0,0,0,0,100,4.046,4.044,4.045,4.044,0,0,0,77.99,28.79483031776,-1.63844821516,0,,
81550,2023-02-01 03:00:48,-3.111721,107.9423379,-1.63844821516,,,28.79483031776,0,0.0223694,11.1316276528,15.4759847472,6,0,32.4932,30.43327853292,0,0.1565858,11.1316276528,0,0,0,87.1, 84.5, 133.5,1,0,1024,1024,1024,1024,0,0,0,0,0,0,0,100,4.046,4.044,4.045,4.044,0,0,0,77.99,28.79483031776,-1.63844821516,0,,
81750,2023-02-01 03:00:48,-3.111721,107.9423379,-1.63844821516,,,28.79483031776,0,0.0223694,11.1316276528,15.4759847472,6,0,32.4932,30.43327853292,0,0.1565858,11.1316276528,0,0,0,87.2, 84.5, 133.5,0,0,1024,1024,1024,1024,0,0,0,0,0,0,0,100,4.046,4.044,4.045,4.044,0,0,0,77.99,28.79483031776,-1.63844821516,0,,
81950,2023-02-01 03:00:48,-3.1117203,107.9423371,-1.63844821516,,,28.79483031776,0,0,11.51902924,15.8634847596,6,0,32.4932,30.43327853292,0,0.1565858,11.51902924,0,0,0,87.2, 84.5, 133.5,0,0,1024,1024,1024,1024,0,0,0,0,0,0,0,100,4.046,4.044,4.045,4.044,0,0,0,77.99,28.79483031776,-1.63844821516,0,,
82150,2023-02-01 03:00:48,-3.11172,107.9423367,-1.36970476824,,,29.06357376468,0,0.0447388,11.7010502432,16.0457354216,6,0,32.4843,30.43327853292,0,0.1565858,11.7010502432,0,0,0,87.2, 84.5, 133.5,0,0,1024,1024,1024,1024,0,0,0,0,0,0,0,100,4.046,4.044,4.045,4.044,0,0,0,77.99,29.06357376468,-1.36970476824,0,,
82350,2023-02-01 03:00:48,-3.1117197,107.9423363,-1.36970476824,,,29.06357376468,0,0.0223694,11.8830712464,16.2279860836,6,0,32.4843,30.43327853292,0,0.1565858,11.8830712464,0,0,0,87.2, 84.5, 133.5,0,0,1024,1024,1024,1024,0,0,0,0,0,0,0,100,4.046,4.044,4.045,4.044,0,0,0,77.99,29.06357376468,-1.36970476824,0,,
82550,2023-02-01 03:00:49,-3.1117194,107.942336,-1.10095804048,,,29.33232049244,0,0.0223694,12.0371066844,16.3826776896,6,0,32.4843,30.43327853292,0,0.1565858,12.0371066844,0,0,0,87.2, 84.5, 133.5,0,0,1024,1024,1024,1024,0,0,0,0,0,0,0,100,4.046,4.044,4.045,4.044,0,0,0,77.99,29.33232049244,-1.10095804048,0,,
82750,2023-02-01 03:00:49,-3.1117194,107.942336,-0.8235564568,,,29.60972207612,0,0.0223694,12.0371066844,16.3826776896,6,0,32.4843,30.43327853292,0,0.1565858,12.0371066844,0,0,0,87.2, 84.5, 133.6,0,0,1024,1024,1024,1024,0,0,0,0,0,0,0,100,4.046,4.044,4.045,4.044,0,0,0,77.99,29.60972207612,-0.8235564568,0,,
82950,2023-02-01 03:00:49,-3.1117189,107.9423353,-0.5461450306,,,29.88713350232,0,0.0223694,12.3498363532,16.6962275684,6,0,32.4843,30.43327853292,0,0.1565858,12.3498363532,0,0,0,87.2, 84.4, 133.6,0,0,1024,1024,1024,1024,0,0,0,0,0,0,0,100,4.046,4.044,4.045,4.044,0,0,0,77.99,29.88713350232,-0.5461450306,0,,
83150,2023-02-01 03:00:49,-3.1117186,107.942335,-0.5461450306,,,29.88713350232,0,0,12.5038389828,16.8509191744,6,0,32.4668,30.43327853292,0,0.1565858,12.5038389828,0,0,0,87.2, 84.5, 133.6,0,0,1024,1024,1024,1024,0,0,0,0,0,0,0,100,4.046,4.044,4.046,4.044,0,0,0,77.99,29.88713350232,-0.5461450306,0,,
83350,2023-02-01 03:00:49,-3.1117184,107.9423346,-2.19326122504,,,28.24001730788,0,0,12.6625988304,17.0138784972,6,0,32.4668,30.43327853292,0,0.1565858,12.6625988304,0,0,0,87.2, 84.5, 133.6,0,0,1024,1024,1024,1024,0,0,0,0,0,0,0,100,4.046,4.044,4.046,4.044,0,0,0,77.99,28.24001730788,-2.19326122504,0,,
83550,2023-02-01 03:00:50,-3.1117183,107.9423343,-1.36970476824,,,29.06357376468,0,0.0223694,12.770177574,17.129101598,6,0,32.4668,30.43327853292,0,0.1565858,12.770177574,0,0,0,87.2, 84.4, 133.5,0,0,1024,1024,1024,1024,0,0,0,0,0,0,0,100,4.046,4.044,4.046,4.044,0,0,0,77.99,29.06357376468,-1.36970476824,0,,
83750,2023-02-01 03:00:50,-3.1117183,107.9423343,-1.91585964136,,,28.51741889156,0,0.0223694,12.770177574,17.129101598,6,0,32.4668,30.43327853292,0,0.1565858,12.770177574,0,0,0,87.2, 84.4, 133.5,0,0,1024,1024,1024,1024,0,0,0,0,0,0,0,100,4.046,4.044,4.046,4.044,0,0,0,77.99,28.51741889156,-1.91585964136,0,,
83950,2023-02-01 03:00:50,-3.1117179,107.9423337,-1.91585964136,,,28.51741889156,0,0,13.0317589472,17.3919296904,6,0,32.4668,30.43327853292,0,0.1565858,13.0317589472,0,0,0,87.2, 84.4, 133.5,0,0,1024,1024,1024,1024,0,0,0,0,0,0,0,100,4.046,4.044,4.046,4.044,0,0,0,77.99,28.51741889156,-1.91585964136,0,,
84160,2023-02-01 03:00:50,-3.1117177,107.9423335,-2.47067265124,,,27.96260588168,0,0.0223694,13.134350814,17.4950464916,6,0,32.5023,30.43327853292,0,0.1565858,13.134350814,0,0,0,87.2, 84.4, 133.5,0,0,1024,1024,1024,1024,0,0,0,0,0,0,0,100,4.046,4.044,4.045,4.044,0,0,0,77.81,27.96260588168,-2.47067265124,0,,
84350,2023-02-01 03:00:50,-3.1117176,107.9423332,-2.19326122504,,,28.24001730788,0,0.0223694,13.2420935996,17.6102695924,6,0,32.5023,30.43327853292,0,0.1565858,13.2420935996,0,0,0,87.3, 84.4, 133.6,0,0,1024,1024,1024,1024,0,0,0,0,0,0,0,100,4.046,4.044,4.045,4.044,0,0,0,77.81,28.24001730788,-2.19326122504,0,,
84550,2023-02-01 03:00:51,-3.1117174,107.942333,-2.19326122504,,,28.24001730788,0,0.0223694,13.3446854664,17.7133863936,6,0,32.5023,30.43327853292,0,0.1565858,13.3446854664,0,0,0,87.5, 84.4, 133.8,0,0,1024,1024,1024,1024,0,0,0,0,0,0,0,100,4.046,4.044,4.045,4.044,0,0,0,77.81,28.24001730788,-2.19326122504,0,,
84750,2023-02-01 03:00:51,-3.1117174,107.942333,-2.47067265124,,,27.96260588168,0,0.0223694,13.3446854664,17.7133863936,6,0,32.5023,30.43327853292,0,0.1565858,13.3446854664,0,0,0,87.6, 84.4, 133.9,0,0,1024,1024,1024,1024,0,0,0,0,0,0,0,100,4.046,4.044,4.045,4.044,0,0,0,77.81,27.96260588168,-2.47067265124,0,,
84950,2023-02-01 03:00:51,-3.1117172,107.9423325,-2.47067265124,,,27.96260588168,0,0,13.5321198556,17.909613434,6,0,32.5023,30.43327853292,0,0.1565858,13.5321198556,0,0,0,87.5, 84.4, 133.9,0,0,1024,1024,1024,1024,0,0,0,0,0,0,0,100,4.046,4.044,4.045,4.044,0,0,0,77.81,27.96260588168,-2.47067265124,0,,
85150,2023-02-01 03:00:51,-3.1117172,107.9423322,-1.36970476824,,,29.06357376468,0,0.0223694,13.6173232704,18.0188982144,6,0,32.5023,30.43327853292,0,0.1565858,13.6173232704,0,0,0,87.5, 84.4, 133.8,0,0,1024,1024,1024,1024,0,0,0,0,0,0,0,100,4.046,4.044,4.045,4.044,0,0,0,77.99,29.06357376468,-1.36970476824,0,,
85350,2023-02-01 03:00:51,-3.1117171,107.9423319,-1.10095804048,,,29.33232049244,0,0.0223694,13.725558182,18.1341213152,6,0,32.5023,30.43327853292,0,0.1565858,13.725558182,0,0,0,87.5, 84.4, 133.8,0,0,1024,1024,1024,1024,0,0,0,0,0,0,0,100,4.046,4.044,4.045,4.044,0,0,0,77.99,29.33232049244,-1.10095804048,0,,
85550,2023-02-01 03:00:52,-3.1117171,107.9423317,-1.10095804048,,,29.33232049244,0,0.0223694,13.7826776064,18.2069887716,6,0,32.5023,30.43327853292,0,0.1565858,13.7826776064,0,0,0,87.5, 84.4, 133.8,0,0,1024,1024,1024,1024,0,0,0,0,0,0,0,100,4.046,4.044,4.045,4.044,0,0,0,77.99,29.33232049244,-1.10095804048,0,,
85750,2023-02-01 03:00:52,-3.1117171,107.9423317,-1.63844821516,,,28.79483031776,0,0.0223694,13.7826776064,18.2069887716,6,0,32.5023,30.43327853292,0,0.1565858,13.7826776064,0,0,0,87.5, 84.4, 133.8,0,0,1024,1024,1024,1024,0,0,0,0,0,0,0,100,4.046,4.044,4.045,4.044,0,0,0,77.99,28.79483031776,-1.63844821516,0,,
85950,2023-02-01 03:00:52,-3.111717,107.9423312,-1.63844821516,,,28.79483031776,0,0.0223694,13.9485240684,18.3927827408,6,0,32.5023,30.43327853292,0,0.1565858,13.9485240684,0,0,0,87.5, 84.4, 133.8,0,0,1024,1024,1024,1024,0,0,0,0,0,0,0,100,4.046,4.044,4.045,4.044,0,0,0,77.99,28.79483031776,-1.63844821516,0,,
86150,2023-02-01 03:00:52,-3.111717,107.942331,-1.91585964136,,,28.51741889156,0,0.0223694,14.006070002,18.4656173888,6,0,32.5021,30.43327853292,0,0.1565858,14.006070002,0,0,0,87.4, 84.4, 133.7,0,0,1024,1024,1024,1024,0,0,0,0,0,0,0,100,4.047,4.044,4.045,4.045,0,0,0,77.99,28.51741889156,-1.91585964136,0,,
86350,2023-02-01 03:00:52,-3.111717,107.9423308,-1.10095804048,,,29.33232049244,0,0.0223694,14.0637471692,18.5384848452,6,0,32.5021,30.43327853292,0,0.1565858,14.0637471692,0,0,0,87.4, 84.4, 133.7,0,0,1024,1024,1024,1024,0,0,0,0,0,0,0,100,4.047,4.044,4.045,4.045,0,0,0,77.99,29.33232049244,-1.10095804048,0,,
86550,2023-02-01 03:00:53,-3.1117169,107.9423306,-1.10095804048,,,29.33232049244,0,0.0223694,14.1437668568,18.6199809108,6,0,32.5021,30.43327853292,0,0.1565858,14.1437668568,0,0,0,87.4, 84.4, 133.7,0,0,1024,1024,1024,1024,0,0,0,0,0,0,0,100,4.047,4.044,4.045,4.045,0,0,0,77.99,29.33232049244,-1.10095804048,0,,
86750,2023-02-01 03:00:53,-3.1117169,107.9423306,-0.8235564568,,,29.60972207612,0,0.0223694,14.1437668568,18.6199809108,6,0,32.5021,30.43327853292,0,0.1565858,14.1437668568,0,0,0,87.3, 84.4, 133.6,0,0,1024,1024,1024,1024,0,0,0,0,0,0,0,100,4.047,4.044,4.045,4.045,0,0,0,77.99,29.60972207612,-0.8235564568,0,,
86960,2023-02-01 03:00:53,-3.1117169,107.9423302,-0.8235564568,,,29.60972207612,0,0,14.2596461256,18.7657158236,6,0,32.5021,30.43327853292,0,0.1565858,14.2596461256,0,0,0,87.3, 84.4, 133.6,0,0,1024,1024,1024,1024,0,0,0,0,0,0,0,100,4.047,4.044,4.045,4.045,0,0,0,77.99,29.60972207612,-0.8235564568,0,,
87150,2023-02-01 03:00:53,-3.1117169,107.94233,-2.19326122504,,,28.24001730788,0,0.0447388,14.3177826104,18.83858328,6,0,32.5022,30.43327853292,0,0.1565858,14.3177826104,0,0,0,87.3, 84.4, 133.5,0,0,1024,1024,1024,1024,0,0,0,0,0,0,0,100,4.047,4.044,4.045,4.044,0,0,0,77.99,28.24001730788,-2.19326122504,0,,
87350,2023-02-01 03:00:53,-3.1117169,107.9423299,-1.91585964136,,,28.51741889156,0,0.0223694,14.3469164696,18.875000604,6,0,32.5022,30.43327853292,0,0.1565858,14.3469164696,0,0,0,87.3, 84.4, 133.6,0,0,1024,1024,1024,1024,0,0,0,0,0,0,0,100,4.047,4.044,4.045,4.044,0,0,0,77.99,28.51741889156,-1.91585964136,0,,
87550,2023-02-01 03:00:54,-3.1117168,107.9423297,-1.91585964136,,,28.51741889156,0,0,14.4271001992,18.9564966696,6,0,32.5022,30.43327853292,0,0.1565858,14.4271001992,0,0,0,87.3, 84.5, 133.6,0,0,1024,1024,1024,1024,0,0,0,0,0,0,0,100,4.047,4.044,4.045,4.044,0,0,0,77.99,28.51741889156,-1.91585964136,0,,
87750,2023-02-01 03:00:54,-3.1117168,107.9423297,-0.8235564568,,,29.60972207612,0,0,14.4271001992,18.9564966696,6,0,32.5022,30.43327853292,0,0.1565858,14.4271001992,0,0,0,87.3, 84.5, 133.6,0,0,1024,1024,1024,1024,0,0,0,0,0,0,0,100,4.047,4.044,4.045,4.044,0,0,0,77.99,29.60972207612,-0.8235564568,0,,
87950,2023-02-01 03:00:54,-3.1117168,107.9423293,-1.91585964136,,,28.51741889156,0,0,14.5440293368,19.102198774,6,0,32.5022,30.43327853292,0,0.1565858,14.5440293368,0,0,0,87.3, 84.5, 133.6,0,0,1024,1024,1024,1024,0,0,0,0,0,0,0,100,4.047,4.044,4.045,4.044,0,0,0,77.99,28.51741889156,-1.91585964136,0,,
88150,2023-02-01 03:00:54,-3.1117168,107.9423291,-1.91585964136,,,28.51741889156,0,0.0223694,14.6026579476,19.1750662304,6,0,32.5022,30.43327853292,0,0.1565858,14.6026579476,0,0,0,87.3, 84.5, 133.5,0,0,1024,1024,1024,1024,0,0,0,0,0,0,0,100,4.047,4.044,4.045,4.044,0,0,0,77.99,28.51741889156,-1.91585964136,0,,
88350,2023-02-01 03:00:54,-3.1117168,107.9423289,-1.63844821516,,,28.79483031776,0,0.0223694,14.6614506004,19.2479336868,6,0,32.5022,30.43327853292,0,0.1565858,14.6614506004,0,0,0,87.2, 84.5, 133.5,0,0,1024,1024,1024,1024,0,0,0,0,0,0,0,100,4.047,4.044,4.045,4.044,0,0,0,77.99,28.79483031776,-1.63844821516,0,,
88550,2023-02-01 03:00:55,-3.1117168,107.9423287,-1.63844821516,,,28.79483031776,0,0.0223694,14.7203416784,19.3208011432,6,0,32.5022,30.43327853292,0,0.1565858,14.7203416784,0,0,0,87.3, 84.5, 133.5,0,0,1024,1024,1024,1024,0,0,0,0,0,0,0,100,4.047,4.044,4.045,4.044,0,0,0,77.99,28.79483031776,-1.63844821516,0,,
88750,2023-02-01 03:00:55,-3.1117168,107.9423287,-0.8235564568,,,29.60972207612,0,0.0223694,14.7203416784,19.3208011432,6,0,32.5022,30.43327853292,0,0.1565858,14.7203416784,0,0,0,87.3, 84.5, 133.6,0,0,1024,1024,1024,1024,0,0,0,0,0,0,0,100,4.047,4.044,4.045,4.044,0,0,0,77.99,29.60972207612,-0.8235564568,0,,
88950,2023-02-01 03:00:55,-3.1117169,107.9423283,-0.5461450306,,,29.88713350232,0,0.0447388,14.8172905004,19.4710308068,6,0,32.5022,30.43327853292,0,0.1565858,14.8172905004,0,0,0,87.3, 84.5, 133.6,0,0,1024,1024,1024,1024,0,0,0,0,0,0,0,100,4.047,4.044,4.045,4.044,0,0,0,77.99,29.88713350232,-0.5461450306,0,,
89150,2023-02-01 03:00:55,-3.1117168,107.9423281,-0.5461450306,,,29.88713350232,0,0.0223694,14.897802314,19.552494064,6,0,32.5023,30.43327853292,0,0.1565858,14.897802314,0,0,0,87.3, 84.5, 133.6,0,0,1024,1024,1024,1024,0,0,0,0,0,0,0,100,4.047,4.044,4.045,4.044,0,0,0,77.99,29.88713350232,-0.5461450306,0,,
89350,2023-02-01 03:00:55,-3.1117168,107.9423279,-1.91585964136,,,28.51741889156,0,0,14.957185518,19.6253615204,6,0,32.5023,30.43327853292,0,0.1565858,14.957185518,0,0,0,87.3, 84.5, 133.6,0,0,1024,1024,1024,1024,0,0,0,0,0,0,0,100,4.047,4.044,4.045,4.044,0,0,0,77.99,28.51741889156,-1.91585964136,0,,
89550,2023-02-01 03:00:56,-3.1117168,107.9423277,-1.91585964136,,,28.51741889156,0,0,15.0166999556,19.6982289768,6,0,32.5023,30.43327853292,0,0.1565858,15.0166999556,0,0,0,87.3, 84.5, 133.6,0,0,1024,1024,1024,1024,0,0,0,0,0,0,0,100,4.047,4.044,4.045,4.044,0,0,0,77.99,28.51741889156,-1.91585964136,0,,
89750,2023-02-01 03:00:56,-3.1117168,107.9423277,-0.8235564568,,,29.60972207612,0,0,15.0166999556,19.6982289768,6,0,32.5023,30.43327853292,0,0.1565858,15.0166999556,0,0,0,87.3, 84.5, 133.6,0,0,1024,1024,1024,1024,0,0,0,0,0,0,0,100,4.047,4.044,4.045,4.044,0,0,0,77.99,29.60972207612,-0.8235564568,0,,
89950,2023-02-01 03:00:56,-3.1117167,107.9423273,-1.10095804048,,,29.33232049244,0,0.0223694,15.1569558656,19.8484586404,6,0,32.5023,30.43327853292,0,0.1565858,15.1569558656,0,0,0,87.3, 84.5, 133.6,0,0,1024,1024,1024,1024,0,0,0,0,0,0,0,100,4.047,4.044,4.045,4.044,0,0,0,77.99,29.33232049244,-1.10095804048,0,,
90150,2023-02-01 03:00:56,-3.1117168,107.9423271,-1.91585964136,,,28.51741889156,0,0.0447388,15.1959322448,19.929954706,6,0,32.4936,30.43327853292,0,0.1565858,15.1959322448,0,0,0,87.3, 84.5, 133.6,0,0,1024,1024,1024,1024,0,0,0,0,0,0,0,100,4.047,4.044,4.045,4.044,0,0,0,77.99,28.51741889156,-1.91585964136,0,,
90350,2023-02-01 03:00:56,-3.1117167,107.9423269,-1.91585964136,,,28.51741889156,0,0.0223694,15.2766081004,20.0114179632,6,0,32.4936,30.43327853292,0,0.1565858,15.2766081004,0,0,0,87.2, 84.5, 133.4,0,0,1024,1024,1024,1024,0,0,0,0,0,0,0,100,4.047,4.044,4.045,4.044,0,0,0,77.99,28.51741889156,-1.91585964136,0,,
90550,2023-02-01 03:00:57,-3.1117167,107.9423267,-1.91585964136,,,28.51741889156,0,0.0223694,15.336614664,20.0842854196,6,0,32.4936,30.43327853292,0,0.1565858,15.336614664,0,0,0,87.1, 84.5, 133.4,0,0,1024,1024,1024,1024,0,0,0,0,0,0,0,100,4.047,4.044,4.045,4.044,0,0,0,77.99,28.51741889156,-1.91585964136,0,,
90750,2023-02-01 03:00:57,-3.1117166,107.9423265,-1.91585964136,,,28.51741889156,0,0.0223694,15.4173561364,20.1657814852,6,0,32.4936,30.43327853292,0,0.1565858,15.4173561364,0,0,0,87.2, 84.5, 133.5,0,0,1024,1024,1024,1024,0,0,0,0,0,0,0,100,4.047,4.044,4.045,4.044,0,0,0,77.99,28.51741889156,-1.91585964136,0,,
90950,2023-02-01 03:00:57,-3.1117165,107.9423263,-1.63844821516,,,28.79483031776,0,0.0223694,15.4980648004,20.2472775508,6,0,32.4936,30.43327853292,0,0.1565858,15.4980648004,0,0,0,87.2, 84.5, 133.5,0,0,1024,1024,1024,1024,0,0,0,0,0,0,0,100,4.047,4.044,4.045,4.044,0,0,0,77.99,28.79483031776,-1.63844821516,0,,
91150,2023-02-01 03:00:57,-3.1117164,107.942326,-2.19326122504,,,28.24001730788,0,0.0447388,15.6088915756,20.3625006516,6,0,32.5111,30.43327853292,0,0.1565858,15.6088915756,0,0,0,87.2, 84.5, 133.5,0,0,1024,1024,1024,1024,0,0,0,0,0,0,0,100,4.046,4.044,4.046,4.044,0,0,0,77.99,28.24001730788,-2.19326122504,0,,
91350,2023-02-01 03:00:57,-3.1117164,107.9423258,-2.19326122504,,,28.24001730788,0,0,15.6691606064,20.4353352996,6,0,32.5111,30.43327853292,0,0.1565858,15.6691606064,0,0,0,87.2, 84.5, 133.5,0,0,1024,1024,1024,1024,0,0,0,0,0,0,0,100,4.046,4.044,4.046,4.044,0,0,0,77.99,28.24001730788,-2.19326122504,0,,
91550,2023-02-01 03:00:58,-3.1117163,107.9423256,-1.36970476824,,,29.06357376468,0,0,15.7499348872,20.5168313652,6,0,32.5111,30.43327853292,0,0.1565858,15.7499348872,0,0,0,87.2, 84.5, 133.5,0,0,1024,1024,1024,1024,0,0,0,0,0,0,0,100,4.046,4.044,4.046,4.044,0,0,0,77.99,29.06357376468,-1.36970476824,0,,
91750,2023-02-01 03:00:58,-3.1117163,107.9423256,-1.36970476824,,,29.06357376468,0,0,15.7499348872,20.5168313652,6,0,32.5111,30.43327853292,0,0.1565858,15.7499348872,0,0,0,87.3, 84.5, 133.6,0,0,1024,1024,1024,1024,0,0,0,0,0,0,0,100,4.046,4.044,4.046,4.044,0,0,0,77.99,29.06357376468,-1.36970476824,0,,
91950,2023-02-01 03:00:58,-3.1117162,107.9423251,-0.5461450306,,,29.88713350232,0,0.0223694,15.9213915856,20.702592526,6,0,32.5111,30.43327853292,0,0.1565858,15.9213915856,0,0,0,87.3, 84.5, 133.6,0,0,1024,1024,1024,1024,0,0,0,0,0,0,0,100,4.046,4.044,4.046,4.044,0,0,0,77.99,29.88713350232,-0.5461450306,0,,
92150,2023-02-01 03:00:58,-3.1117161,107.9423249,-0.5461450306,,,29.88713350232,0,0.0223694,16.0022314832,20.7840885916,6,0,32.5111,30.43327853292,0,0.1565858,16.0022314832,0,0,0,87.3, 84.5, 133.6,0,0,1024,1024,1024,1024,0,0,0,0,0,0,0,100,4.048,4.044,4.046,4.044,0,0,0,77.99,29.88713350232,-0.5461450306,0,,
92350,2023-02-01 03:00:58,-3.111716,107.9423247,-2.73941609816,,,27.69386243476,0,0.0223694,16.0830713808,20.8655846572,6,0,32.5111,30.43327853292,0,0.1565858,16.0830713808,0,0,0,87.3, 84.5, 133.6,0,0,1024,1024,1024,1024,0,0,0,0,0,0,0,100,4.048,4.044,4.046,4.044,0,0,0,77.99,27.69386243476,-2.73941609816,0,,
92560,2023-02-01 03:00:59,-3.1117159,107.9423245,-2.73941609816,,,27.69386243476,0,0.0223694,16.1639440868,20.9470807228,6,0,32.5111,30.43327853292,0,0.1565858,16.1639440868,0,0,0,87.3, 84.5, 133.6,0,0,1024,1024,1024,1024,0,0,0,0,0,0,0,100,4.048,4.044,4.046,4.044,0,0,0,77.99,27.69386243476,-2.73941609816,0,,
92750,2023-02-01 03:00:59,-3.1117159,107.9423245,-0.27740158368,,,30.15587694924,0,0.0223694,16.1639440868,20.9470807228,6,0,32.5111,30.43327853292,0,0.1565858,16.1639440868,0,0,0,87.2, 84.5, 133.5,0,0,1024,1024,1024,1024,0,0,0,0,0,0,0,100,4.048,4.044,4.046,4.044,0,0,0,77.99,30.15587694924,-0.27740158368,0,,
92950,2023-02-01 03:00:59,-3.1117157,107.9423241,-0.27740158368,,,30.15587694924,0,0.0223694,16.3256566904,21.1100400456,6,0,32.5111,30.43327853292,0,0.1565858,16.3256566904,0,0,0,87.2, 84.5, 133.5,0,0,1024,1024,1024,1024,0,0,0,0,0,0,0,100,4.048,4.044,4.046,4.044,0,0,0,77.99,30.15587694924,-0.27740158368,0,,
93150,2023-02-01 03:00:59,-3.1117156,107.9423239,-0.5461450306,,,29.88713350232,0,0.0223694,16.4065293964,21.1915361112,6,0,32.4938,30.43327853292,0,0.1565858,16.4065293964,0,0,0,87.2, 84.5, 133.5,0,0,1024,1024,1024,1024,0,0,0,0,0,0,0,100,4.048,4.044,4.046,4.044,0,0,0,77.99,29.88713350232,-0.5461450306,0,,
93350,2023-02-01 03:00:59,-3.1117155,107.9423238,-0.5461450306,,,29.88713350232,0,0,16.4570871408,21.2430781076,6,0,32.4938,30.43327853292,0,0.1565858,16.4570871408,0,0,0,87.2, 84.5, 133.5,0,0,1024,1024,1024,1024,0,0,0,0,0,0,0,100,4.048,4.044,4.046,4.044,0,0,0,77.99,29.88713350232,-0.5461450306,0,,
93550,2023-02-01 03:01:00,-3.1117154,107.9423236,0.2774114262,,,30.71068995912,0,0,16.5379270384,21.3245741732,6,0,32.4938,30.71068995912,0.2774114262,0.1565858,16.5379270384,0,0,0,87.2, 84.5, 133.5,0,0,1024,1024,1024,1024,0,0,0,0,0,0,0,100,4.048,4.044,4.046,4.044,0,0,0,77.99,30.71068995912,0.2774114262,0,,
93750,2023-02-01 03:01:00,-3.1117154,107.9423236,0.2774114262,,,30.71068995912,0,0,16.5379270384,21.3245741732,6,0,32.4938,30.71068995912,0.2774114262,0.1565858,16.5379270384,0,0,0,87.2, 84.5, 133.5,0,0,1024,1024,1024,1024,0,0,0,0,0,0,0,100,4.048,4.044,4.046,4.044,0,0,0,77.99,30.71068995912,0.2774114262,0,,
93950,2023-02-01 03:01:00,-3.1117151,107.9423232,-1.36970476824,,,29.06357376468,0,0.0223694,16.7199152332,21.5068248352,6,0,32.4938,30.71068995912,0.2774114262,0.1565858,16.7199152332,0,0,0,87.2, 84.5, 133.5,0,0,1024,1024,1024,1024,0,0,0,0,0,0,0,100,4.048,4.044,4.046,4.044,0,0,0,77.99,29.06357376468,-1.36970476824,0,,
94150,2023-02-01 03:01:00,-3.111715,107.942323,-1.10095804048,,,29.33232049244,0,0.0223694,16.8007551308,21.5883209008,6,0,32.5203,30.71068995912,0.2774114262,0.1565858,16.8007551308,0,0,0,87.2, 84.5, 133.5,0,0,1024,1024,1024,1024,0,0,0,0,0,0,0,100,4.048,4.044,4.046,4.044,0,0,0,77.99,29.33232049244,-1.10095804048,0,,
94350,2023-02-01 03:01:00,-3.1117148,107.9423227,-1.36970476824,,,29.06357376468,0,0.0223694,16.9321855812,21.7197185428,6,0,32.5203,30.71068995912,0.2774114262,0.1565858,16.9321855812,0,0,0,87.2, 84.5, 133.5,0,0,1024,1024,1024,1024,0,0,0,0,0,0,0,100,4.048,4.044,4.046,4.044,0,0,0,77.99,29.06357376468,-1.36970476824,0,,
94550,2023-02-01 03:01:01,-3.1117147,107.9423225,-1.36970476824,,,29.06357376468,0,0,17.0130582872,21.8012146084,6,0,32.5203,30.71068995912,0.2774114262,0.1565858,17.0130582872,0,0,0,87.3, 84.5, 133.5,0,0,1024,1024,1024,1024,0,0,0,0,0,0,0,100,4.048,4.044,4.046,4.044,0,0,0,77.99,29.06357376468,-1.36970476824,0,,
94750,2023-02-01 03:01:01,-3.1117147,107.9423225,-2.47067265124,,,27.96260588168,0,0,17.0130582872,21.8012146084,6,0,32.5203,30.71068995912,0.2774114262,0.1565858,17.0130582872,0,0,0,87.3, 84.5, 133.6,0,0,1024,1024,1024,1024,0,0,0,0,0,0,0,100,4.048,4.044,4.046,4.044,0,0,0,77.99,27.96260588168,-2.47067265124,0,,
94950,2023-02-01 03:01:01,-3.1117144,107.9423221,-1.63844821516,,,28.79483031776,0,0.0223694,17.1950136736,21.9834652704,6,0,32.5203,30.71068995912,0.2774114262,0.1565858,17.1950136736,0,0,0,87.3, 84.5, 133.6,0,0,1024,1024,1024,1024,0,0,0,0,0,0,0,100,4.048,4.044,4.046,4.044,0,0,0,77.99,28.79483031776,-1.63844821516,0,,
95150,2023-02-01 03:01:01,-3.1117142,107.9423218,-1.63844821516,,,28.79483031776,0,0,17.3264113156,22.1148957208,6,0,32.5111,30.71068995912,0.2774114262,0.1565858,17.3264113156,0,0,0,87.3, 84.5, 133.6,0,0,1024,1024,1024,1024,0,0,0,0,0,0,0,100,4.048,4.044,4.046,4.044,0,0,0,77.99,28.79483031776,-1.63844821516,0,,
95360,2023-02-01 03:01:01,-3.111714,107.9423216,-2.19326122504,,,28.24001730788,0,0.0223694,17.4275268044,22.218012522,6,0,32.5111,30.71068995912,0.2774114262,0.1565858,17.4275268044,0,0,0,87.3, 84.5, 133.6,0,0,1024,1024,1024,1024,0,0,0,0,0,0,0,100,4.048,4.044,4.046,4.044,0,0,0,77.99,28.24001730788,-2.19326122504,0,,
95560,2023-02-01 03:01:02,-3.1117139,107.9423214,-2.19326122504,,,28.24001730788,0,0.0447388,17.5083995104,22.2994757792,6,0,32.5111,30.71068995912,0.2774114262,0.1565858,17.5083995104,0,0,0,87.3, 84.5, 133.6,0,0,1024,1024,1024,1024,0,0,0,0,0,0,0,100,4.048,4.044,4.046,4.044,0,0,0,77.99,28.24001730788,-2.19326122504,0,,
95750,2023-02-01 03:01:02,-3.1117139,107.9423214,-0.8235564568,,,29.60972207612,0,0.0447388,17.5083995104,22.2994757792,6,0,32.5111,30.71068995912,0.2774114262,0.1565858,17.5083995104,0,0,0,87.3, 84.5, 133.6,0,0,1024,1024,1024,1024,0,0,0,0,0,0,0,100,4.048,4.044,4.046,4.044,0,0,0,77.99,29.60972207612,-0.8235564568,0,,
95950,2023-02-01 03:01:02,-3.1117135,107.9423209,-3.01682096268,,,27.41645757024,0,0,17.7409126412,22.5329075452,6,0,32.5111,30.71068995912,0.2774114262,0.1565858,17.7409126412,0,0,0,87.3, 84.5, 133.6,0,0,1024,1024,1024,1024,0,0,0,0,0,0,0,100,4.048,4.044,4.046,4.044,0,0,0,77.99,27.41645757024,-3.01682096268,0,,
96140,2023-02-01 03:01:02,-3.1117135,107.9423209,-3.01682096268,,,27.41645757024,0,0,17.7409126412,22.5329075452,6,0,32.5023,30.71068995912,0.2774114262,0.1565858,17.7409126412,0,0,0,87.3, 84.5, 133.6,0,0,1024,1024,1024,1024,0,0,0,0,0,0,0,100,4.047,4.044,4.046,4.044,0,0,0,77.99,27.41645757024,-3.01682096268,0,,
96350,2023-02-01 03:01:02,-3.1117132,107.9423203,-2.19326122504,,,28.24001730788,0,0.0223694,17.9834979508,22.7773629336,6,0,32.5023,30.71068995912,0.2774114262,0.1565858,17.9834979508,0,0,0,87.3, 84.5, 133.6,0,0,1024,1024,1024,1024,0,0,0,0,0,0,0,100,4.047,4.044,4.046,4.044,0,0,0,77.99,28.24001730788,-2.19326122504,0,,
96550,2023-02-01 03:01:03,-3.1117131,107.9423201,-2.19326122504,,,28.24001730788,0,0.0223694,18.0643706568,22.8588261908,6,0,32.5023,30.71068995912,0.2774114262,0.1565858,18.0643706568,0,0,0,87.3, 84.5, 133.6,0,0,1024,1024,1024,1024,0,0,0,0,0,0,0,100,4.047,4.044,4.046,4.044,0,0,0,77.99,28.24001730788,-2.19326122504,0,,
96750,2023-02-01 03:01:03,-3.1117129,107.9423199,-1.36970476824,,,29.06357376468,0,0.0223694,18.1654533372,22.961942992,6,0,32.5023,30.71068995912,0.2774114262,0.1565858,18.1654533372,0,0,0,87.3, 84.5, 133.5,0,0,1024,1024,1024,1024,0,0,0,0,0,0,0,100,4.047,4.044,4.046,4.044,0,0,0,77.99,29.06357376468,-1.36970476824,0,,
96950,2023-02-01 03:01:03,-3.1117128,107.9423196,-1.36970476824,,,29.06357376468,0,0.0223694,18.2766738132,23.0771660928,6,0,32.5023,30.71068995912,0.2774114262,0.1565858,18.2766738132,0,0,0,87.2, 84.5, 133.5,0,0,1024,1024,1024,1024,0,0,0,0,0,0,0,100,4.047,4.044,4.046,4.044,0,0,0,77.99,29.06357376468,-1.36970476824,0,,
97150,2023-02-01 03:01:03,-3.1117126,107.9423194,-1.36970476824,,,29.06357376468,0,0.0223694,18.3777236852,23.1803157024,6,0,32.5202,30.71068995912,0.2774114262,0.1565858,18.3777236852,0,0,0,87.2, 84.5, 133.5,0,0,1024,1024,1024,1024,0,0,0,0,0,0,0,100,4.048,4.044,4.046,4.044,0,0,0,77.99,29.06357376468,-1.36970476824,0,,
97350,2023-02-01 03:01:03,-3.1117125,107.9423192,-1.36970476824,,,29.06357376468,0,0,18.4585963912,23.2617789596,6,0,32.5202,30.71068995912,0.2774114262,0.1565858,18.4585963912,0,0,0,87.3, 84.5, 133.6,0,0,1024,1024,1024,1024,0,0,0,0,0,0,0,100,4.048,4.044,4.046,4.044,0,0,0,77.99,29.06357376468,-1.36970476824,0,,
