time(millisecond),datetime(utc),latitude,longitude,height_above_takeoff(feet),height_above_ground_at_drone_location(feet),ground_elevation_at_drone_location(feet),altitude_above_seaLevel(feet),height_sonar(feet),speed(mph),distance(feet),mileage(feet),satellites,gpslevel,voltage(v),max_altitude(feet),max_ascent(feet),max_speed(mph),max_distance(feet), xSpeed(mph), ySpeed(mph), zSpeed(mph), compass_heading(degrees), pitch(degrees), roll(degrees),isPhoto,isVideo,rc_elevator,rc_aileron,rc_throttle,rc_rudder,rc_elevator(percent),rc_aileron(percent),rc_throttle(percent),rc_rudder(percent),gimbal_heading(degrees),gimbal_pitch(degrees),gimbal_roll(degrees),battery_percent,voltageCell1,voltageCell2,voltageCell3,voltageCell4,voltageCell5,voltageCell6,current(A),battery_temperature(f),altitude(feet),ascent(feet),flycStateRaw,flycState,message
5760,1969-12-31 16:00:00,0,0,0,Available with any HD 360 subscription,Available with any HD 360 subscription,32.111566972452,0,0,0,0,0,0,0,32.111566972452,0,0,0,0,0,0,0, 0, 0,0,0,1024,1024,1024,1024,0,0,0,0,0,0,0,100,3.803,3.784,3.782,3.78,0,0,0,85.55,32.111566972452,0,0,,
53010,1969-12-31 16:00:00,0,0,0,,,32.111566972452,0,0,0,0,0,0,0,32.111566972452,0,0,0,0,0,0,0, 0, 0,0,0,1024,1024,1024,1024,0,0,0,0,0,0,0,100,3.803,3.784,3.782,3.78,0,0,0,85.55,32.111566972452,0,0,,
57990,1969-12-31 16:00:00,0,0,0,,,32.111566972452,0,0,0,0,0,0,0,32.111566972452,0,0,0,0,0,0,0, 0, 0,0,0,1024,1024,1024,1024,0,0,0,0,0,0,0,100,3.803,3.784,3.782,3.78,0,0,0,85.55,32.111566972452,0,0,,"[logger] Start mavlink log"
58210,1969-12-31 16:00:00,0,0,0,,,32.111566972452,0,0,0,0,0,0,0,32.111566972452,0,0,0,0,0,0,0, 0, 0,0,0,1024,1024,1024,1024,0,0,0,0,0,0,0,100,3.803,3.784,3.782,3.78,0,0,0,85.55,32.111566972452,0,0,,
59210,1969-12-31 16:00:00,0,0,0,,,32.111566972452,0,0,0,0,0,0,0,32.111566972452,0,0,0,0,0,0,0, 0, 0,0,0,1024,1024,1024,1024,0,0,0,0,0,0,0,100,3.803,3.784,3.782,3.78,0,0,0,85.55,32.111566972452,0,0,,"[sensors] Remaining sensors after failover event 0: mag #0 priority: 1"
59960,1969-12-31 16:00:00,0,0,0,,,32.111566972452,0,0,0,0,0,0,0,32.111566972452,0,0,0,0,0,0,0, 0, 0,0,0,1024,1024,1024,1024,0,0,0,0,0,0,0,100,3.803,3.784,3.782,3.78,0,0,0,85.55,32.111566972452,0,0,,
267650,2023-02-01 03:43:54,-3.1116907,107.9420982,188.46457296,,,220.57613993245,0,29.9078878,17.7271659216,17.727362772,6,0,30.4673,220.57613993245,188.46457296,29.9078878,17.7271659216,-2.908022,0.223694,-0.223694,286.4, 12.2, -1.7,0,0,1024,1024,1024,1024,0,0,0,0,0,0,0,100,3.803,3.784,3.782,3.78,0,0,0.03,85.55,220.57613993245,188.46457296,0,,
267850,2023-02-01 03:43:54,-3.1116897,107.9420739,190.397971972,,,222.50953894445,0,29.527608,26.587271192,26.5876320844,6,0,30.4673,222.50953894445,190.397971972,29.9078878,26.587271192,-2.908022,0.223694,-0.447388,283.5, 13.1, -2.8,0,0,1024,1024,1024,1024,0,0,0,0,0,0,0,100,3.803,3.784,3.782,3.78,0,0,0.03,85.55,222.50953894445,190.397971972,0,,
268040,2023-02-01 03:43:54,-3.1116891,107.9420495,193.423234536,,,225.53480150845,0,28.6104626,35.477691424,35.479659928,6,0,30.4673,225.53480150845,193.423234536,29.9078878,35.477691424,-2.908022,0,-0.671082,279.4, 12.5, -5.2,0,0,1024,1024,1024,1024,0,0,0,0,0,0,0,100,3.803,3.784,3.782,3.78,0,0,0.03,85.55,225.53480150845,193.423234536,0,,
268230,2023-02-01 03:43:54,-3.1116889,107.9420257,192.322512716,,,224.43407968845,0,28.4986156,44.144686452,44.150591964,6,0,30.4673,225.53480150845,193.423234536,29.9078878,44.144686452,-2.908022,0,-0.671082,279.4, 10.9, -3.9,0,0,1024,1024,1024,1024,0,0,0,0,0,0,0,100,3.803,3.784,3.782,3.78,0,0,0.03,85.55,224.43407968845,192.322512716,0,,
268420,2023-02-01 03:43:54,-3.111689,107.9420023,195.356633548,,,227.46820052045,0,28.5433544,52.664371764,52.67552662,6,0,30.4673,227.46820052045,195.356633548,29.9078878,52.664371764,-2.908022,0,-0.447388,281.6, 10, -2.8,0,0,1024,1024,1024,1024,0,0,0,0,0,0,0,100,3.803,3.784,3.782,3.78,0,0,0.03,85.55,227.46820052045,195.356633548,0,,
268620,2023-02-01 03:43:55,-3.1116892,107.9419904,195.356633548,,,227.46820052045,0,28.3867686,56.996064816,57.011484764,6,0,30.6458,227.46820052045,195.356633548,29.9078878,56.996064816,-2.908022,0,-0.447388,282.7, 9, -3.3,0,0,1024,1024,1024,1024,0,0,0,0,0,0,0,100,3.857,3.849,3.851,3.852,0,0,0.009,85.73,227.46820052045,195.356633548,0,,
268810,2023-02-01 03:43:55,-3.1116894,107.9419663,194.24705346,,,226.35862043245,0,28.5433544,65.771983732,65.791668772,6,0,30.6458,227.46820052045,195.356633548,29.9078878,65.771983732,-2.908022,0,-0.223694,281.4, 8.6, -2.2,0,0,1024,1024,1024,1024,0,0,0,0,0,0,0,100,3.857,3.849,3.851,3.852,0,0,0.009,85.73,226.35862043245,194.24705346,0,,
269000,2023-02-01 03:43:55,-3.1116898,107.9419423,194.801843504,,,226.91341047645,0,28.856526,74.511485324,74.536091624,6,0,30.6458,227.46820052045,195.356633548,29.9078878,74.511485324,-2.908022,0,-0.223694,279.9, 8.5, -3.1,0,0,1024,1024,1024,1024,0,0,0,0,0,0,0,100,3.857,3.849,3.851,3.852,0,0,0.009,85.73,226.91341047645,194.801843504,0,,
269210,2023-02-01 03:43:55,-3.1116903,107.9419186,198.104665132,,,230.21623210445,0,28.5657238,83.142063028,83.172246756,6,0,30.6458,230.21623210445,198.104665132,29.9078878,83.142063028,-2.908022,0,-0.223694,280.3, 8.5, -2.7,0,0,1024,1024,1024,1024,0,0,0,0,0,0,0,100,3.857,3.849,3.851,3.852,0,0,0.009,85.73,230.21623210445,198.104665132,0,,
269410,2023-02-01 03:43:55,-3.111691,107.941895,197.003615228,,,229.11518220045,0,28.8788954,91.736879576,91.773953068,6,0,30.6458,230.21623210445,198.104665132,29.9078878,91.736879576,-2.908022,0,-0.223694,281.3, 8.8, -0.5,0,0,1024,1024,1024,1024,0,0,0,0,0,0,0,100,3.857,3.849,3.851,3.852,0,0,0.009,85.73,229.11518220045,197.003615228,0,,
269610,2023-02-01 03:43:56,-3.1116918,107.9418715,197.558405272,,,229.66997224445,0,29.0354812,100.295934968,100.340226308,6,0,30.6728,230.21623210445,198.104665132,29.9078878,100.295934968,-2.908022,0,-0.223694,281.9, 9.2, -1.3,0,0,1024,1024,1024,1024,0,0,0,0,0,0,0,100,3.853,3.845,3.848,3.848,0,0,0.009,85.73,229.66997224445,197.558405272,0,,
269810,2023-02-01 03:43:56,-3.1116926,107.941848,197.835964336,,,229.94753130845,0,28.9236342,108.856302696,108.906499548,6,0,30.6728,230.21623210445,198.104665132,29.9078878,108.856302696,-2.908022,0,-0.223694,280.7, 9.5, -3.3,0,0,1024,1024,1024,1024,0,0,0,0,0,0,0,100,3.853,3.845,3.848,3.848,0,0,0.009,85.73,229.94753130845,197.835964336,0,,
270010,2023-02-01 03:43:56,-3.1116934,107.9418246,197.835964336,,,229.94753130845,0,28.9907424,117.381237352,117.436355464,6,0,30.6728,230.21623210445,198.104665132,29.9078878,117.381237352,-2.908022,0,-0.223694,279.2, 9.5, -4.7,0,0,1024,1024,1024,1024,0,0,0,0,0,0,0,100,3.853,3.845,3.848,3.848,0,0,0.009,85.73,229.94753130845,197.835964336,0,,
270200,2023-02-01 03:43:56,-3.1116945,107.9418011,201.416345028,,,233.52791200045,0,29.1249588,125.943573584,126.00722188,6,0,30.6728,233.52791200045,201.416345028,29.9078878,125.943573584,-2.908022,-0.223694,-0.447388,278.7, 10.2, -8.8,0,0,1024,1024,1024,1024,0,0,0,0,0,0,0,100,3.853,3.845,3.848,3.848,0,0,0.009,85.73,233.52791200045,201.416345028,0,,
270410,2023-02-01 03:43:56,-3.1116963,107.9417774,199.491804284,,,231.60337125645,0,29.4381304,134.58169722,134.666342892,6,0,30.6728,233.52791200045,201.416345028,29.9078878,134.58169722,-2.908022,-0.223694,-0.447388,278.5, 10, -5.6,0,0,1024,1024,1024,1024,0,0,0,0,0,0,0,100,3.853,3.845,3.848,3.848,0,0,0.009,85.73,231.60337125645,199.491804284,0,,
270610,2023-02-01 03:43:57,-3.1116984,107.9417537,199.21424522,,,231.32581219245,0,29.3710222,143.223757864,143.334322172,6,0,30.7099,233.52791200045,201.416345028,29.9078878,143.223757864,-2.908022,-0.223694,-0.447388,278.2, 10.2, -2.6,0,0,1024,1024,1024,1024,0,0,0,0,0,0,0,100,3.853,3.845,3.847,3.848,0,0,0.01,85.91,231.32581219245,199.21424522,0,,
270800,2023-02-01 03:43:57,-3.1117008,107.9417298,203.626646936,,,235.73821390845,0,29.5723468,151.9439025,152.085306704,6,0,30.7099,235.73821390845,203.626646936,29.9078878,151.9439025,-2.908022,-0.223694,-0.447388,278.3, 10.3, -0.6,0,0,1024,1024,1024,1024,0,0,0,0,0,0,0,100,3.853,3.845,3.847,3.848,0,0,0.01,85.91,235.73821390845,203.626646936,0,,
271010,2023-02-01 03:43:57,-3.1117031,107.9417061,203.626646936,,,235.73821390845,0,29.2144364,160.593509076,160.760175748,6,0,30.7099,235.73821390845,203.626646936,29.9078878,160.593509076,-2.908022,-0.223694,-0.447388,278.2, 10.3, 3.4,0,0,1024,1024,1024,1024,0,0,0,0,0,0,0,100,3.853,3.845,3.847,3.848,0,0,0.01,85.91,235.73821390845,203.626646936,0,,
271210,2023-02-01 03:43:57,-3.1117053,107.9416823,205.2739567,,,237.38552367245,0,29.4828692,169.281173396,169.467853192,6,0,30.7099,237.38552367245,205.2739567,29.9078878,169.281173396,-2.908022,-0.223694,-0.447388,280, 9.9, 3.6,0,0,1024,1024,1024,1024,0,0,0,0,0,0,0,100,3.853,3.845,3.847,3.848,0,0,0.01,85.91,237.38552367245,205.2739567,0,,
271400,2023-02-01 03:43:57,-3.1117074,107.9416585,206.105977724,,,238.21754469645,0,29.3933916,177.969821968,178.172249796,6,0,30.7099,238.21754469645,206.105977724,29.9078878,177.969821968,-2.908022,-0.223694,-0.447388,282, 10, 5,0,0,1024,1024,1024,1024,0,0,0,0,0,0,0,100,3.853,3.845,3.847,3.848,0,0,0.01,85.91,238.21754469645,206.105977724,0,,
271600,2023-02-01 03:43:58,-3.1117092,107.9416346,209.409127436,,,241.52069440845,0,29.3486528,186.69291936,186.903877372,6,0,30.7479,241.52069440845,209.409127436,29.9078878,186.69291936,-2.908022,-0.223694,-0.447388,281.9, 10.3, 4.7,0,0,1024,1024,1024,1024,0,0,0,0,0,0,0,100,3.86,3.854,3.857,3.855,0,0,0.009,85.91,241.52069440845,209.409127436,0,,
271790,2023-02-01 03:43:58,-3.1117105,107.9416108,208.585636596,,,240.69720356845,0,29.2144364,195.374022,195.587604684,8,0,30.7479,241.52069440845,209.409127436,29.9078878,195.374022,-2.908022,-0.223694,-0.447388,280.8, 10.4, 3.6,0,0,1024,1024,1024,1024,0,0,0,0,0,0,0,100,3.86,3.854,3.857,3.855,0,0,0.009,85.91,240.69720356845,208.585636596,0,,
271980,2023-02-01 03:43:58,-3.1117114,107.9415871,208.585636596,,,240.69720356845,0,29.0578506,204.014442224,204.228024908,8,0,30.7479,241.52069440845,209.409127436,29.9078878,204.014442224,-2.908022,-0.223694,-0.447388,280.6, 10.4, 3.1,0,0,1024,1024,1024,1024,0,0,0,0,0,0,0,100,3.86,3.854,3.857,3.855,0,0,0.009,85.91,240.69720356845,208.585636596,0,,
272180,2023-02-01 03:43:58,-3.1117122,107.9415634,210.24114846,,,242.35271543245,0,29.0578506,212.653550112,212.867132796,8,0,30.7479,242.35271543245,210.24114846,29.9078878,212.653550112,-2.908022,-0.223694,-0.447388,281.7, 10.2, 1.6,0,0,1024,1024,1024,1024,0,0,0,0,0,0,0,100,3.86,3.854,3.857,3.855,0,0,0.009,85.91,242.35271543245,210.24114846,0,,
272380,2023-02-01 03:43:58,-3.1117129,107.9415397,213.821529152,,,245.93309612445,0,29.1473282,221.291345664,221.504928348,8,0,30.7479,245.93309612445,213.821529152,29.9078878,221.291345664,-2.908022,-0.223694,-0.447388,283.4, 10.2, 3.3,0,0,1024,1024,1024,1024,0,0,0,0,0,0,0,100,3.86,3.854,3.857,3.855,0,0,0.009,85.91,245.93309612445,213.821529152,0,,
272570,2023-02-01 03:43:59,-3.1117134,107.941516,213.821529152,,,245.93309612445,0,28.968373,229.926844628,230.14108348,8,0,30.8076,245.93309612445,213.821529152,29.9078878,229.926844628,-2.908022,0,-0.447388,283.5, 10.4, 3.6,0,0,1024,1024,1024,1024,0,0,0,0,0,0,0,100,3.866,3.856,3.859,3.858,0,0,0.009,86.09,245.93309612445,213.821529152,0,,
272770,2023-02-01 03:43:59,-3.1117135,107.9414925,216.30085994,,,248.41242691245,0,28.856526,238.485243852,238.70243546,8,0,30.8076,248.41242691245,216.30085994,29.9078878,238.485243852,-2.908022,0,-0.447388,282.1, 10.3, 2.1,0,0,1024,1024,1024,1024,0,0,0,0,0,0,0,100,3.866,3.856,3.859,3.858,0,0,0.009,86.09,248.41242691245,216.30085994,0,,
272980,2023-02-01 03:43:59,-3.1117137,107.9414691,217.956699888,,,250.06826686045,0,28.744679,247.008210004,247.2276982,8,0,30.8076,250.06826686045,217.956699888,29.9078878,247.008210004,-2.908022,0,-0.447388,281.8, 9.9, 1.4,0,0,1024,1024,1024,1024,0,0,0,0,0,0,0,100,3.866,3.856,3.859,3.858,0,0,0.009,86.09,250.06826686045,217.956699888,0,,
273180,2023-02-01 03:43:59,-3.1117139,107.9414457,219.057749792,,,251.16931676445,0,28.7223096,255.53150424,255.75296094,8,0,30.8076,251.16931676445,219.057749792,29.9078878,255.53150424,-2.908022,0,-0.447388,283, 9.7, 1.5,0,0,1024,1024,1024,1024,0,0,0,0,0,0,0,100,3.866,3.856,3.859,3.858,0,0,0.009,86.09,251.16931676445,219.057749792,0,,
273370,2023-02-01 03:43:59,-3.1117141,107.9414219,219.334980772,,,251.44654774445,0,28.7670484,264.200467772,264.423892976,12,0,30.8076,251.44654774445,219.334980772,29.9078878,264.200467772,-2.908022,0,-0.447388,282.9, 11.2, 0.2,0,0,1024,1024,1024,1024,0,0,0,0,0,0,0,100,3.866,3.856,3.859,3.858,0,0,0.009,86.09,251.44654774445,219.334980772,0,,
273570,2023-02-01 03:44:00,-3.1117146,107.9413971,219.334980772,,,251.44654774445,0,29.192067,273.236885384,273.460638672,12,0,29.9168,251.44654774445,219.334980772,29.9078878,273.236885384,-2.908022,0,-0.671082,282.1, 13, -0.7,0,0,1024,1024,1024,1024,0,0,0,0,0,0,0,100,3.859,3.845,3.844,3.84,0,0,0.01,86.27,251.44654774445,219.334980772,0,,
273760,2023-02-01 03:44:00,-3.1117153,107.9413721,220.99082072,,,253.10238769245,0,29.2815446,282.348434232,282.57218752,12,0,29.9168,253.10238769245,220.99082072,29.9078878,282.348434232,-2.908022,0,-0.671082,282.1, 14.8, -2,0,0,1024,1024,1024,1024,0,0,0,0,0,0,0,100,3.859,3.845,3.844,3.84,0,0,0.01,86.27,253.10238769245,220.99082072,0,,
273950,2023-02-01 03:44:00,-3.111716,107.9413471,223.470151508,,,255.58171848045,0,29.639455,291.459654996,291.683408284,12,0,29.9168,255.58171848045,223.470151508,29.9078878,291.459654996,-2.908022,0,-0.671082,280.6, 16.2, -3.5,0,0,1024,1024,1024,1024,0,0,0,0,0,0,0,100,3.859,3.845,3.844,3.84,0,0,0.01,86.27,255.58171848045,223.470151508,0,,
274140,2023-02-01 03:44:00,-3.1117167,107.9413221,226.781831404,,,258.89339837645,0,29.7065632,300.57087576,300.794957132,12,0,29.9168,258.89339837645,226.781831404,29.9078878,300.57087576,-2.908022,0,-0.894776,277.6, 18.1, -2.4,0,0,1024,1024,1024,1024,0,0,0,0,0,0,0,100,3.859,3.845,3.844,3.84,0,0,0.01,86.27,258.89339837645,226.781831404,0,,
274340,2023-02-01 03:44:00,-3.1117178,107.9412974,232.295283024,,,264.40684999645,0,29.4828692,309.577437728,309.802175268,12,0,29.9168,264.40684999645,232.295283024,29.9078878,309.577437728,-2.908022,-0.223694,-1.11847,277.6, 19.5, -1.7,0,0,1024,1024,1024,1024,0,0,0,0,0,0,0,100,3.859,3.845,3.844,3.84,0,0,0.01,86.27,264.40684999645,232.295283024,0,,
274550,2023-02-01 03:44:01,-3.1117192,107.941273,237.262474784,,,269.37404175645,0,29.0131118,318.47770048,318.706046944,12,0,29.6124,269.37404175645,237.262474784,29.9078878,318.47770048,-2.908022,-0.223694,-1.342164,279.5, 20.6, 2.2,0,0,1024,1024,1024,1024,0,0,0,0,0,0,0,100,3.781,3.772,3.771,3.769,0,0,0.018,86.27,269.37404175645,237.262474784,0,,
274750,2023-02-01 03:44:01,-3.1117204,107.941249,238.094823892,,,270.20639086445,0,28.744679,327.230325432,327.4606404,12,0,29.6124,270.20639086445,238.094823892,29.9078878,327.230325432,-2.908022,-0.223694,-1.342164,281.3, 21.2, 4.7,0,0,1024,1024,1024,1024,0,0,0,0,0,0,0,100,3.781,3.772,3.771,3.769,0,0,0.018,86.27,270.20639086445,238.094823892,0,,
274940,2023-02-01 03:44:01,-3.1117211,107.9412256,245.26411546,,,277.37568243245,0,28.0512276,335.75788476,335.9908244,12,0,29.6124,277.37568243245,245.26411546,29.9078878,335.75788476,-2.908022,0,-1.565858,280.7, 22.1, 4.3,0,0,1024,1024,1024,1024,0,0,0,0,0,0,0,100,3.781,3.772,3.771,3.769,0,0,0.018,86.27,277.37568243245,245.26411546,0,,
275150,2023-02-01 03:44:01,-3.1117216,107.9412026,245.26411546,,,277.37568243245,0,27.8275336,344.14043096,344.37008976,12,0,29.6124,277.37568243245,245.26411546,29.9078878,344.14043096,-2.684328,0,-1.565858,280, 21.9, 2.4,0,0,1024,1024,1024,1024,0,0,0,0,0,0,0,100,3.781,3.772,3.771,3.769,0,0,0.018,86.27,277.37568243245,245.26411546,0,,
275350,2023-02-01 03:44:01,-3.111722,107.9411794,246.919955408,,,279.03152238045,0,28.2525522,352.5918748,352.82481444,12,0,29.6124,279.03152238045,246.919955408,29.9078878,352.5918748,-2.908022,0,-1.342164,280.4, 22, 4.8,0,0,1024,1024,1024,1024,0,0,0,0,0,0,0,100,3.781,3.772,3.771,3.769,0,0,0.018,86.27,279.03152238045,246.919955408,0,,
275540,2023-02-01 03:44:02,-3.1117224,107.9411565,252.719496276,,,284.83106324845,0,27.8722724,360.93505092,361.16799056,12,0,29.6701,284.83106324845,252.719496276,29.9078878,360.93505092,-2.684328,0,-1.342164,281.3, 22, 6.8,0,0,1024,1024,1024,1024,0,0,0,0,0,0,0,100,3.782,3.76,3.772,3.768,0,0,0.019,86.45,284.83106324845,252.719496276,0,,
275750,2023-02-01 03:44:02,-3.1117224,107.941134,256.854667012,,,288.96623398445,0,27.3801456,369.13058924,369.36352888,12,0,29.6701,288.96623398445,256.854667012,29.9078878,369.13058924,-2.684328,0,-1.565858,281.9, 22.4, 7.9,0,0,1024,1024,1024,1024,0,0,0,0,0,0,0,100,3.782,3.76,3.772,3.768,0,0,0.019,86.45,288.96623398445,256.854667012,0,,
275950,2023-02-01 03:44:02,-3.1117218,107.9411122,260.166018824,,,292.27758579645,0,26.7538024,377.06366036,377.30972336,12,0,29.6701,292.27758579645,260.166018824,29.9078878,377.06366036,-2.684328,0,-1.565858,282.7, 22.1, 8.6,0,0,1024,1024,1024,1024,0,0,0,0,0,0,0,100,3.782,3.76,3.772,3.768,0,0,0.019,86.45,292.27758579645,260.166018824,0,,
276140,2023-02-01 03:44:02,-3.111721,107.9410904,266.52067782,,,298.63224479245,0,26.7538024,384.99345064,385.25591784,12,0,29.6701,298.63224479245,266.52067782,29.9078878,384.99345064,-2.684328,0.223694,-1.565858,284.5, 21.8, 10.3,0,0,1024,1024,1024,1024,0,0,0,0,0,0,0,100,3.782,3.76,3.772,3.768,0,0,0.019,86.45,298.63224479245,266.52067782,0,,
276340,2023-02-01 03:44:02,-3.1117197,107.9410688,270.66437874,,,302.77594571245,0,26.6866942,392.8477816,393.13977636,12,0,29.6701,302.77594571245,270.66437874,29.9078878,392.8477816,-2.684328,0.223694,-1.565858,286.9, 21.5, 12.5,0,0,1024,1024,1024,1024,0,0,0,0,0,0,0,100,3.782,3.76,3.772,3.768,0,0,0.019,86.45,302.77594571245,270.66437874,0,,
276550,2023-02-01 03:44:03,-3.1117177,107.9410474,275.085638724,,,307.19720569645,0,26.2169368,400.6233724,400.97114144,12,0,29.8242,307.19720569645,275.085638724,29.9078878,400.6233724,-2.684328,0.223694,-1.565858,288, 21.1, 13.7,0,0,1024,1024,1024,1024,0,0,0,0,0,0,0,100,3.777,3.765,3.767,3.767,0,0,0.019,86.45,307.19720569645,275.085638724,0,,
276740,2023-02-01 03:44:03,-3.1117149,107.9410261,275.085638724,,,307.19720569645,0,26.3511532,408.36287396,408.79922568,12,0,29.8242,307.19720569645,275.085638724,29.9078878,408.36287396,-2.684328,0.447388,-1.342164,286.7, 21.3, 12.7,0,0,1024,1024,1024,1024,0,0,0,0,0,0,0,100,3.777,3.765,3.767,3.767,0,0,0.019,86.45,307.19720569645,275.085638724,0,,
276940,2023-02-01 03:44:03,-3.1117114,107.9410052,280.607620528,,,312.71918750045,0,26.1274592,415.95145688,416.5190422,12,0,29.8242,312.71918750045,280.607620528,29.9078878,415.95145688,-2.460634,0.447388,-1.342164,286.8, 21.3, 12.9,0,0,1024,1024,1024,1024,0,0,0,0,0,0,0,100,3.777,3.765,3.767,3.767,0,0,0.019,86.45,312.71918750045,280.607620528,0,,
277130,2023-02-01 03:44:03,-3.1117076,107.9409846,283.650599628,,,315.76216660045,0,25.6800712,423.43505292,424.15027604,12,0,29.8242,315.76216660045,283.650599628,29.9078878,423.43505292,-2.460634,0.447388,-1.565858,290, 20.9, 14.8,0,0,1024,1024,1024,1024,0,0,0,0,0,0,0,100,3.777,3.765,3.767,3.767,0,0,0.019,86.45,315.76216660045,283.650599628,0,,
277320,2023-02-01 03:44:03,-3.1117053,107.9409744,293.593841416,,,325.70540838845,0,25.501116,427.14240212,427.95933128,12,0,29.8242,325.70540838845,293.593841416,29.9078878,427.14240212,-2.460634,0.671082,-1.565858,292.1, 20.9, 15.7,0,0,1024,1024,1024,1024,0,0,0,0,0,0,0,100,3.777,3.765,3.767,3.767,0,0,0.019,86.45,325.70540838845,293.593841416,0,,
277510,2023-02-01 03:44:04,-3.1117002,107.9409549,295.804471408,,,327.91603838045,0,24.9642504,434.22901652,435.3018512,12,0,29.7285,327.91603838045,295.804471408,29.9078878,434.22901652,-2.460634,0.671082,-1.565858,293.4, 20.3, 15.8,0,0,1024,1024,1024,1024,0,0,0,0,0,0,0,100,3.774,3.757,3.765,3.764,0,0,0.019,86.45,327.91603838045,295.804471408,0,,
277710,2023-02-01 03:44:04,-3.1116943,107.9409357,301.0580805,,,333.16964747245,0,24.8747728,441.21720572,442.62140524,12,0,29.7285,333.16964747245,301.0580805,29.9078878,441.21720572,-2.460634,0.894776,-1.565858,294.9, 20.2, 15.3,0,0,1024,1024,1024,1024,0,0,0,0,0,0,0,100,3.774,3.757,3.765,3.764,0,0,0.019,86.45,333.16964747245,301.0580805,0,,
277900,2023-02-01 03:44:04,-3.1116876,107.9409167,304.92455044,,,337.03611741245,0,25.0089892,448.14305896,449.96392516,12,0,29.7285,337.03611741245,304.92455044,29.9078878,448.14305896,-2.23694,0.894776,-1.342164,295.3, 20.7, 13.7,0,0,1024,1024,1024,1024,0,0,0,0,0,0,0,100,3.774,3.757,3.765,3.764,0,0,0.019,86.45,337.03611741245,304.92455044,0,,
278100,2023-02-01 03:44:04,-3.1116804,107.9408984,309.06825136,,,341.17981833245,0,24.0023662,454.82941088,457.12927972,12,0,29.7285,341.17981833245,309.06825136,29.9078878,454.82941088,-2.23694,0.894776,-1.565858,297.1, 20.3, 12.9,0,0,1024,1024,1024,1024,0,0,0,0,0,0,0,100,3.774,3.757,3.765,3.764,0,0,0.019,86.45,341.17981833245,309.06825136,0,,
278310,2023-02-01 03:44:04,-3.1116724,107.9408807,314.044301388,,,346.15586836045,0,23.6891946,461.31563156,464.2060516,12,0,29.7285,346.15586836045,314.044301388,29.9078878,461.31563156,-2.23694,1.11847,-1.565858,298.9, 19.5, 12.5,0,0,1024,1024,1024,1024,0,0,0,0,0,0,0,100,3.774,3.757,3.765,3.764,0,0,0.019,86.45,346.15586836045,314.044301388,0,,
278510,2023-02-01 03:44:05,-3.1116639,107.9408634,318.474091556,,,350.58565852845,0,24.1365826,467.67718032,471.23033004,12,0,29.9801,350.58565852845,318.474091556,29.9078878,467.67718032,-2.23694,1.11847,-1.342164,300.3, 18.9, 12.3,0,0,1024,1024,1024,1024,0,0,0,0,0,0,0,100,3.779,3.763,3.765,3.774,0,0,0.018,86.63,350.58565852845,318.474091556,0,,
278700,2023-02-01 03:44:05,-3.1116548,107.9408464,318.474091556,,,350.58565852845,0,24.0918438,473.95670808,478.25788932,12,0,29.9801,350.58565852845,318.474091556,29.9078878,473.95670808,-2.013246,1.11847,-1.342164,302, 18.5, 11.9,0,0,1024,1024,1024,1024,0,0,0,0,0,0,0,100,3.779,3.763,3.765,3.774,0,0,0.018,86.63,350.58565852845,318.474091556,0,,
278910,2023-02-01 03:44:05,-3.1116453,107.9408296,320.684721548,,,352.79628852045,0,24.0918438,480.18702324,485.29201028,12,0,29.9801,352.79628852045,320.684721548,29.9078878,480.18702324,-2.013246,1.11847,-1.342164,304.4, 18.5, 13.2,0,0,1024,1024,1024,1024,0,0,0,0,0,0,0,100,3.779,3.763,3.765,3.774,0,0,0.018,86.63,352.79628852045,320.684721548,0,,
279110,2023-02-01 03:44:05,-3.111635,107.9408133,326.21556162,,,358.32712859245,0,23.935258,486.27298144,492.31956956,12,0,29.9801,358.32712859245,326.21556162,29.9078878,486.27298144,-2.013246,1.342164,-1.342164,305.3, 19.1, 14,0,0,1024,1024,1024,1024,0,0,0,0,0,0,0,100,3.779,3.763,3.765,3.774,0,0,0.018,86.63,358.32712859245,326.21556162,0,,
279310,2023-02-01 03:44:05,-3.1116241,107.9407977,329.53413128,,,361.64569825245,0,23.6220864,492.13584252,499.25526532,12,0,29.9801,361.64569825245,329.53413128,29.9078878,492.13584252,-2.013246,1.342164,-1.565858,305.6, 19.2, 12.7,0,0,1024,1024,1024,1024,0,0,0,0,0,0,0,100,3.779,3.763,3.765,3.774,0,0,0.018,86.63,361.64569825245,329.53413128,0,,
279510,2023-02-01 03:44:06,-3.1116124,107.9407825,334.52100808,,,366.63257505245,0,23.6444558,497.9002784,506.24673536,12,0,29.8909,366.63257505245,334.52100808,29.9078878,497.9002784,-1.789552,1.565858,-1.342164,306, 19.3, 11.4,0,0,1024,1024,1024,1024,0,0,0,0,0,0,0,100,3.776,3.764,3.768,3.771,0,0,0.018,86.63,366.63257505245,334.52100808,0,,
279710,2023-02-01 03:44:06,-3.1116004,107.9407679,338.95014208,,,371.06170905245,0,23.4207618,503.48754892,513.13649936,12,0,29.8909,371.06170905245,338.95014208,29.9078878,503.48754892,-1.789552,1.565858,-1.342164,307.8, 19.1, 11.3,0,0,1024,1024,1024,1024,0,0,0,0,0,0,0,100,3.776,3.764,3.768,3.771,0,0,0.018,86.63,371.06170905245,338.95014208,0,,
279900,2023-02-01 03:44:06,-3.1115881,107.9407536,344.48163832,,,376.59320529245,0,23.376023,509.00264096,520.01314,14,0,29.8909,376.59320529245,344.48163832,29.9078878,509.00264096,-1.789552,1.565858,-1.565858,309.5, 19, 11.8,0,0,1024,1024,1024,1024,0,0,0,0,0,0,0,100,3.776,3.764,3.768,3.771,0,0,0.018,86.63,376.59320529245,344.48163832,0,,
280100,2023-02-01 03:44:06,-3.1115753,107.9407396,346.13846252,,,378.25002949245,0,23.5773476,514.45867788,526.92915072,14,0,29.8909,378.25002949245,346.13846252,29.9078878,514.45867788,-1.789552,1.565858,-1.342164,310.9, 19, 10.7,0,0,1024,1024,1024,1024,0,0,0,0,0,0,0,100,3.776,3.764,3.768,3.771,0,0,0.018,86.63,378.25002949245,346.13846252,0,,
280310,2023-02-01 03:44:06,-3.111562,107.9407262,351.95539184,,,384.06695881245,0,23.3089148,519.74739196,533.81235304,14,0,29.8909,384.06695881245,351.95539184,29.9078878,519.74739196,-1.565858,1.789552,-1.565858,311, 19.5, 9.8,0,0,1024,1024,1024,1024,0,0,0,0,0,0,0,100,3.776,3.764,3.768,3.771,0,0,0.018,86.63,384.06695881245,351.95539184,0,,
280500,2023-02-01 03:44:07,-3.1115484,107.9407134,351.95539184,,,384.06695881245,0,23.264176,524.86550236,540.62009604,14,0,29.7804,384.06695881245,351.95539184,29.9078878,524.86550236,-1.565858,1.789552,-1.565858,311.9, 18.8, 11,0,0,1024,1024,1024,1024,0,0,0,0,0,0,0,100,3.778,3.766,3.761,3.771,0,0,0.018,86.63,384.06695881245,351.95539184,0,,
280710,2023-02-01 03:44:07,-3.1115343,107.9407004,358.04791172,,,390.15947869245,0,23.9576274,530.11484636,547.61156608,14,0,29.7804,390.15947869245,358.04791172,29.9078878,530.11484636,-1.565858,1.789552,-1.342164,314.5, 18.9, 12.9,0,0,1024,1024,1024,1024,0,0,0,0,0,0,0,100,3.778,3.766,3.761,3.771,0,0,0.018,86.63,390.15947869245,358.04791172,0,,
280910,2023-02-01 03:44:07,-3.1115197,107.9406878,363.85499852,,,395.96656549245,0,24.0694744,535.28216936,554.64568704,14,0,29.7804,395.96656549245,363.85499852,29.9078878,535.28216936,-1.565858,1.789552,-1.342164,315.8, 19.4, 13.2,0,0,1024,1024,1024,1024,0,0,0,0,0,0,0,100,3.778,3.766,3.761,3.771,0,0,0.018,86.63,395.96656549245,363.85499852,0,,
281100,2023-02-01 03:44:07,-3.1115044,107.9406756,363.57940796,,,395.69097493245,0,24.3379072,540.37731388,561.78151404,14,0,29.7804,395.96656549245,363.85499852,29.9078878,540.37731388,-1.565858,2.013246,-1.342164,318.3, 19.4, 13.3,0,0,1024,1024,1024,1024,0,0,0,0,0,0,0,100,3.778,3.766,3.761,3.771,0,0,0.018,86.63,395.69097493245,363.57940796,0,,
281310,2023-02-01 03:44:07,-3.1114886,107.9406635,365.52166524,,,397.63323221245,0,24.60634,545.50854764,569.03545128,14,0,29.7804,397.63323221245,365.52166524,29.9078878,545.50854764,-1.565858,2.013246,-1.342164,321.7, 19.5, 14.1,0,0,1024,1024,1024,1024,0,0,0,0,0,0,0,100,3.778,3.766,3.761,3.771,0,0,0.018,86.63,397.63323221245,365.52166524,0,,
281510,2023-02-01 03:44:08,-3.1114722,107.9406521,372.16864708,,,404.28021405245,0,24.8747728,550.46917772,576.32219692,14,0,29.7589,404.28021405245,372.16864708,29.9078878,550.46917772,-1.342164,2.013246,-1.342164,321.7, 20.3, 14.6,0,0,1024,1024,1024,1024,0,0,0,0,0,0,0,100,3.771,3.75,3.757,3.756,0,0,0.019,86.81,404.28021405245,372.16864708,0,,
281710,2023-02-01 03:44:08,-3.1114551,107.9406413,378.81890976,,,410.93047673245,0,25.165575,555.30185504,583.69752524,14,0,29.7589,410.93047673245,378.81890976,29.9078878,555.30185504,-1.342164,2.23694,-1.342164,320.2, 20.9, 12.2,0,0,1024,1024,1024,1024,0,0,0,0,0,0,0,100,3.771,3.75,3.757,3.756,0,0,0.019,86.81,410.93047673245,378.81890976,0,,
281900,2023-02-01 03:44:08,-3.1114375,107.940631,381.30578648,,,413.41735345245,0,25.4116384,560.04266884,591.13518952,14,0,29.7589,413.41735345245,381.30578648,29.9078878,560.04266884,-1.342164,2.23694,-1.342164,318.8, 22.2, 10.9,0,0,1024,1024,1024,1024,0,0,0,0,0,0,0,100,3.771,3.75,3.757,3.756,0,0,0.019,86.81,413.41735345245,381.30578648,0,,
282110,2023-02-01 03:44:08,-3.1114196,107.9406215,389.34384448,,,421.45541145245,0,25.1208362,564.57350888,598.5236412,14,0,29.7589,421.45541145245,389.34384448,29.9078878,564.57350888,-1.11847,2.23694,-1.342164,318.8, 23, 11.2,0,0,1024,1024,1024,1024,0,0,0,0,0,0,0,100,3.771,3.75,3.757,3.756,0,0,0.019,86.81,421.45541145245,389.34384448,0,,
282310,2023-02-01 03:44:08,-3.1114017,107.940613,389.34384448,,,421.45541145245,0,24.270799,568.80579248,605.75133172,14,0,29.7589,421.45541145245,389.34384448,29.9078878,568.80579248,-0.894776,2.23694,-1.565858,320.2, 22.6, 11.4,0,0,1024,1024,1024,1024,0,0,0,0,0,0,0,100,3.771,3.75,3.757,3.756,0,0,0.019,86.81,421.45541145245,389.34384448,0,,
282500,2023-02-01 03:44:09,-3.1113837,107.9406052,392.39502568,,,424.50659265245,0,24.3379072,572.85434904,612.9101246,14,0,29.7237,424.50659265245,392.39502568,29.9078878,572.85434904,-0.894776,2.23694,-1.565858,324.3, 21.8, 12.8,0,0,1024,1024,1024,1024,0,0,0,0,0,0,0,100,3.756,3.738,3.745,3.75,0,0,0.02,86.99,424.50659265245,392.39502568,0,,
282710,2023-02-01 03:44:09,-3.1113656,107.9405979,394.05184988,,,426.16341685245,0,24.3379072,576.79463788,620.02626656,14,0,29.7237,426.16341685245,394.05184988,29.9078878,576.79463788,-0.894776,2.23694,-1.565858,329.5, 21.3, 15.9,0,0,1024,1024,1024,1024,0,0,0,0,0,0,0,100,3.756,3.738,3.745,3.75,0,0,0.02,86.99,426.16341685245,394.05184988,0,,
282910,2023-02-01 03:44:09,-3.111347,107.9405916,399.87534088,,,431.98690785245,0,24.5839706,580.4790212,627.19162112,14,0,29.7237,431.98690785245,399.87534088,29.9078878,580.4790212,-0.671082,2.23694,-1.565858,328.4, 21.7, 14.5,0,0,1024,1024,1024,1024,0,0,0,0,0,0,0,100,3.756,3.738,3.745,3.75,0,0,0.02,86.99,431.98690785245,399.87534088,0,,
283110,2023-02-01 03:44:09,-3.1113279,107.9405864,405.6922702,,,437.80383717245,0,24.5839706,583.87797144,634.41274996,14,0,29.7237,437.80383717245,405.6922702,29.9078878,583.87797144,-0.671082,2.460634,-1.565858,325.6, 22.4, 11.2,0,0,1024,1024,1024,1024,0,0,0,0,0,0,0,100,3.756,3.738,3.745,3.75,0,0,0.02,86.99,437.80383717245,405.6922702,0,,
283310,2023-02-01 03:44:09,-3.1113089,107.9405816,411.24017064,,,443.35173761245,0,24.3379072,587.19818152,641.56170032,14,0,29.7237,443.35173761245,411.24017064,29.9078878,587.19818152,-0.671082,2.460634,-1.565858,327.4, 21.6, 11.4,0,0,1024,1024,1024,1024,0,0,0,0,0,0,0,100,3.756,3.738,3.745,3.75,0,0,0.02,86.99,443.35173761245,411.24017064,0,,
283510,2023-02-01 03:44:10,-3.1112898,107.9405767,416.23360912,,,448.34517609245,0,24.60634,590.62665932,648.75658244,14,0,29.7669,448.34517609245,416.23360912,29.9078878,590.62665932,-0.671082,2.460634,-1.342164,331.2, 20.8, 13.3,0,0,1024,1024,1024,1024,0,0,0,0,0,0,0,100,3.77,3.754,3.757,3.76,0,0,0.018,87.17,448.34517609245,416.23360912,0,,
283710,2023-02-01 03:44:10,-3.1112704,107.9405725,418.73032836,,,450.84189533245,0,24.9195116,593.90749932,655.99739632,14,0,29.7669,450.84189533245,418.73032836,29.9078878,593.90749932,-0.447388,2.460634,-1.342164,331.7, 21, 14.3,0,0,1024,1024,1024,1024,0,0,0,0,0,0,0,100,3.77,3.754,3.757,3.76,0,0,0.018,87.17,450.84189533245,418.73032836,0,,
283910,2023-02-01 03:44:10,-3.1112505,107.9405694,425.39043356,,,457.50200053245,0,25.2103138,596.92259128,663.34647792,14,0,29.7669,457.50200053245,425.39043356,29.9078878,596.92259128,-0.223694,2.460634,-1.342164,331.3, 21.4, 13.7,0,0,1024,1024,1024,1024,0,0,0,0,0,0,0,100,3.77,3.754,3.757,3.76,0,0,0.018,87.17,457.50200053245,425.39043356,0,,
284110,2023-02-01 03:44:10,-3.1112302,107.9405672,427.8871528,,,459.99871977245,0,25.2997914,599.737552,670.79398472,14,0,29.7669,459.99871977245,427.8871528,29.9078878,599.737552,-0.223694,2.460634,-1.342164,332.9, 21.6, 14.8,0,0,1024,1024,1024,1024,0,0,0,0,0,0,0,100,3.77,3.754,3.757,3.76,0,0,0.018,87.17,459.99871977245,427.8871528,0,,
284310,2023-02-01 03:44:10,-3.1112095,107.9405656,431.21392456,,,463.32549153245,0,25.7695488,602.46393004,678.36944428,14,0,29.7669,463.32549153245,431.21392456,29.9078878,602.46393004,-0.223694,2.460634,-1.342164,333.9, 21.5, 14.9,0,0,1024,1024,1024,1024,0,0,0,0,0,0,0,100,3.77,3.754,3.757,3.76,0,0,0.018,87.17,463.32549153245,431.21392456,0,,
284500,2023-02-01 03:44:11,-3.1111885,107.9405645,431.21392456,,,463.32549153245,0,26.3064144,605.1345338,686.04332904,14,0,29.6006,463.32549153245,431.21392456,29.9078878,605.1345338,0,2.684328,-1.342164,335, 21.6, 15.1,0,0,1024,1024,1024,1024,0,0,0,0,0,0,0,100,3.761,3.748,3.752,3.752,0,0,0.019,87.17,463.32549153245,431.21392456,0,,
284710,2023-02-01 03:44:11,-3.111167,107.9405638,435.09843912,,,467.21000609245,0,26.7985412,607.8084184,693.89109832,14,0,29.6006,467.21000609245,435.09843912,29.9078878,607.8084184,0,2.684328,-1.342164,339.7, 21.1, 17.4,0,0,1024,1024,1024,1024,0,0,0,0,0,0,0,100,3.761,3.748,3.752,3.752,0,0,0.019,87.17,467.21000609245,435.09843912,0,,
284910,2023-02-01 03:44:11,-3.1111452,107.9405634,438.42849172,,,470.54005869245,0,27.0446046,610.50526888,701.84713532,14,0,29.6006,470.54005869245,438.42849172,29.9078878,610.50526888,0,2.684328,-1.342164,346.2, 20.7, 20.5,0,0,1024,1024,1024,1024,0,0,0,0,0,0,0,100,3.761,3.748,3.752,3.752,0,0,0.019,87.17,470.54005869245,438.42849172,0,,
285110,2023-02-01 03:44:11,-3.1111233,107.9405645,442.0439774,,,474.15554437245,0,27.4472538,612.79201436,709.84582324,14,0,29.6006,474.15554437245,442.0439774,29.9078878,612.79201436,0.223694,2.684328,-1.342164,350.5, 21.2, 22.2,0,0,1024,1024,1024,1024,0,0,0,0,0,0,0,100,3.761,3.748,3.752,3.752,0,0,0.019,87.17,474.15554437245,442.0439774,0,,
285310,2023-02-01 03:44:11,-3.1111013,107.9405675,447.03741588,,,479.14898285245,0,27.7604254,614.53742124,717.9462172,14,0,29.6006,479.14898285245,447.03741588,29.9078878,614.53742124,0.447388,2.684328,-1.565858,351.6, 22.1, 18.9,0,0,1024,1024,1024,1024,0,0,0,0,0,0,0,100,3.761,3.748,3.752,3.752,0,0,0.019,87.17,479.14898285245,447.03741588,0,,
285510,2023-02-01 03:44:12,-3.1110793,107.9405722,455.08859724,,,487.20016421245,0,27.9170112,615.80710632,726.15487888,14,0,29.8233,487.20016421245,455.08859724,29.9078878,615.80710632,0.671082,2.684328,-1.565858,351.4, 22.7, 17.4,0,0,1024,1024,1024,1024,0,0,0,0,0,0,0,100,3.757,3.744,3.745,3.749,0,0,0.019,87.17,487.20016421245,455.08859724,0,,
285700,2023-02-01 03:44:12,-3.1110576,107.9405782,459.2519832,,,491.36355017245,0,27.96175,616.70605648,734.3668214,14,0,29.8233,491.36355017245,459.2519832,29.9078878,616.70605648,0.894776,2.684328,-1.565858,351.8, 23.2, 15.9,0,0,1024,1024,1024,1024,0,0,0,0,0,0,0,100,3.757,3.744,3.745,3.749,0,0,0.019,87.17,491.36355017245,459.2519832,0,,
285910,2023-02-01 03:44:12,-3.1110362,107.9405853,463.13321692,,,495.24478389245,0,27.8946418,617.29988852,742.59188728,14,0,29.8233,495.24478389245,463.13321692,29.9078878,617.29988852,0.894776,2.684328,-1.789552,353, 22.1, 16.3,0,0,1024,1024,1024,1024,0,0,0,0,0,0,0,100,3.757,3.744,3.745,3.749,0,0,0.019,87.17,495.24478389245,463.13321692,0,,
286110,2023-02-01 03:44:12,-3.1110148,107.9405929,463.13321692,,,495.24478389245,0,28.3196604,617.83466544,750.87600828,14,0,29.8233,495.24478389245,463.13321692,29.9078878,617.83466544,0.894776,2.684328,-1.565858,354, 21.4, 15,0,0,1024,1024,1024,1024,0,0,0,0,0,0,0,100,3.757,3.744,3.745,3.749,0,0,0.019,87.17,495.24478389245,463.13321692,0,,
286310,2023-02-01 03:44:12,-3.1109931,107.9406015,467.58203596,,,499.69360293245,0,29.08022,618.192277,759.38978808,14,0,29.8233,499.69360293245,467.58203596,29.9078878,618.192277,1.11847,2.684328,-1.565858,353.2, 21.9, 13.9,0,0,1024,1024,1024,1024,0,0,0,0,0,0,0,100,3.757,3.744,3.745,3.749,0,0,0.019,87.17,499.69360293245,467.58203596,0,,
286500,2023-02-01 03:44:13,-3.1109716,107.940611,472.86090752,,,504.97247449245,0,29.0578506,618.3399148,767.96590384,14,0,29.7589,504.97247449245,472.86090752,29.9078878,618.3399148,1.11847,2.684328,-1.565858,352.6, 21.9, 10.8,0,0,1024,1024,1024,1024,0,0,0,0,0,0,0,100,3.766,3.759,3.759,3.758,0,0,0.018,87.35,504.97247449245,472.86090752,0,,
286710,2023-02-01 03:44:13,-3.1109502,107.9406211,478.41865048,,,510.53021745245,0,29.2591752,618.39568908,776.59779388,14,0,29.7589,510.53021745245,478.41865048,29.9078878,618.39568908,1.342164,2.684328,-1.565858,353, 21.6, 12,0,0,1024,1024,1024,1024,0,0,0,0,0,0,0,100,3.766,3.759,3.759,3.758,0,0,0.018,87.35,510.53021745245,478.41865048,0,,
286910,2023-02-01 03:44:13,-3.1109289,107.9406317,481.47639336,,,513.58796033245,0,29.6170856,618.39240824,785.27561568,14,0,29.7589,513.58796033245,481.47639336,29.9078878,618.39568908,1.342164,2.684328,-1.565858,353.4, 21.2, 13.1,0,0,1024,1024,1024,1024,0,0,0,0,0,0,0,100,3.766,3.759,3.759,3.758,0,0,0.018,87.35,513.58796033245,481.47639336,0,,
287110,2023-02-01 03:44:13,-3.1109075,107.9406428,490.63977948,,,522.75134645245,0,30.1092124,618.36616152,794.06826688,14,0,29.7589,522.75134645245,490.63977948,30.1092124,618.39568908,1.342164,2.684328,-1.565858,354.8, 21.6, 15.9,0,0,1024,1024,1024,1024,0,0,0,0,0,0,0,100,3.766,3.759,3.759,3.758,0,0,0.018,87.35,522.75134645245,490.63977948,0,,
287300,2023-02-01 03:44:13,-3.1108864,107.9406548,492.59187928,,,524.70344625245,0,30.1315818,618.12337936,802.9199732,14,0,29.7589,524.70344625245,492.59187928,30.1315818,618.39568908,1.565858,2.684328,-1.565858,359.9, 19.6, 17.3,0,0,1024,1024,1024,1024,0,0,0,0,0,0,0,100,3.766,3.759,3.759,3.758,0,0,0.018,87.35,524.70344625245,492.59187928,0,,
287500,2023-02-01 03:44:14,-3.1108651,107.9406674,496.48295552,,,528.59452249245,0,30.9145108,617.85435048,811.94556404,14,0,29.7098,528.59452249245,496.48295552,30.9145108,618.39568908,1.565858,2.684328,-1.342164,3, 19.4, 21.3,0,0,1024,1024,1024,1024,0,0,0,0,0,0,0,100,3.77,3.754,3.759,3.761,0,0,0.017,87.35,528.59452249245,496.48295552,0,,
287710,2023-02-01 03:44:14,-3.1108438,107.9406813,496.48295552,,,528.59452249245,0,32.100089,617.30316936,821.22049872,14,0,29.7098,528.59452249245,496.48295552,32.100089,618.39568908,1.789552,2.684328,-1.342164,3.6, 21.1, 23.2,0,0,1024,1024,1024,1024,0,0,0,0,0,0,0,100,3.77,3.754,3.759,3.761,0,0,0.017,87.35,528.59452249245,496.48295552,0,,
287910,2023-02-01 03:44:14,-3.1108227,107.9406967,500.3773126,,,532.48887957245,0,32.659324,616.39109584,830.74805808,14,0,29.7098,532.48887957245,500.3773126,32.659324,618.39568908,2.013246,2.684328,-1.565858,5.7, 21.7, 26.2,0,0,1024,1024,1024,1024,0,0,0,0,0,0,0,100,3.77,3.754,3.759,3.761,0,0,0.017,87.35,532.48887957245,500.3773126,0,,
288100,2023-02-01 03:44:14,-3.1108017,107.9407134,506.21064612,,,538.32221309245,0,33.4646224,615.20015092,840.53152296,14,0,29.7098,538.32221309245,506.21064612,33.4646224,618.39568908,2.23694,2.684328,-1.565858,11.3, 20.7, 29,0,0,1024,1024,1024,1024,0,0,0,0,0,0,0,100,3.77,3.754,3.759,3.761,0,0,0.017,87.35,538.32221309245,506.21064612,0,,
288310,2023-02-01 03:44:14,-3.110781,107.9407317,510.94489824,,,543.05646521245,0,34.560723,613.61222436,850.60370176,14,0,29.7098,543.05646521245,510.94489824,34.560723,618.39568908,2.23694,2.460634,-1.342164,16.4, 20.6, 31.4,0,0,1024,1024,1024,1024,0,0,0,0,0,0,0,100,3.77,3.754,3.759,3.761,0,0,0.017,87.35,543.05646521245,510.94489824,0,,
288510,2023-02-01 03:44:15,-3.1107608,107.9407519,513.71720804,,,545.82877501245,0,36.0594728,611.51248676,861.02036876,14,0,29.8395,545.82877501245,513.71720804,36.0594728,618.39568908,2.684328,2.460634,-1.565858,19.6, 22.1, 32.4,0,0,1024,1024,1024,1024,0,0,0,0,0,0,0,100,3.762,3.755,3.756,3.758,0,0,0.018,87.35,545.82877501245,513.71720804,0,,
288700,2023-02-01 03:44:15,-3.1107414,107.9407742,520.12468856,,,552.23625553245,0,37.3345286,608.78610872,871.79464732,14,0,29.8395,552.23625553245,520.12468856,37.3345286,618.39568908,2.908022,2.23694,-1.565858,21.2, 23.7, 33.2,0,0,1024,1024,1024,1024,0,0,0,0,0,0,0,100,3.762,3.755,3.756,3.758,0,0,0.018,87.35,552.23625553245,520.12468856,0,,
288900,2023-02-01 03:44:15,-3.1107234,107.9407987,524.57022676,,,556.68179373245,0,38.3411516,605.29201412,882.87732484,14,0,29.8395,556.68179373245,524.57022676,38.3411516,618.39568908,3.131716,2.23694,-1.565858,22.6, 24.7, 31.7,0,0,1024,1024,1024,1024,0,0,0,0,0,0,0,100,3.762,3.755,3.756,3.758,0,0,0.018,87.35,556.68179373245,524.57022676,0,,
289110,2023-02-01 03:44:15,-3.1107064,107.9408248,527.63125048,,,559.74281745245,0,39.3254052,601.295951,894.22903124,14,0,29.8395,559.74281745245,527.63125048,39.3254052,618.39568908,3.35541,2.013246,-1.565858,26.9, 24, 32.8,0,0,1024,1024,1024,1024,0,0,0,0,0,0,0,100,3.762,3.755,3.756,3.758,0,0,0.018,87.35,559.74281745245,527.63125048,0,,
289310,2023-02-01 03:44:15,-3.1106904,107.9408524,532.64109316,,,564.75266013245,0,40.2201812,596.83072776,905.8563282,14,0,29.8395,564.75266013245,532.64109316,40.2201812,618.39568908,3.579104,2.013246,-1.565858,33, 22.6, 35,0,0,1024,1024,1024,1024,0,0,0,0,0,0,0,100,3.762,3.755,3.756,3.758,0,0,0.018,87.35,564.75266013245,532.64109316,0,,
289500,2023-02-01 03:44:16,-3.1106756,107.9408819,532.64109316,,,564.75266013245,0,41.830778,591.7487066,917.88388764,14,0,29.8624,564.75266013245,532.64109316,41.830778,618.39568908,3.802798,1.789552,-1.565858,37.3, 23, 37.1,0,0,1024,1024,1024,1024,0,0,0,0,0,0,0,100,3.779,3.762,3.77,3.763,0,0,0.017,87.53,564.75266013245,532.64109316,0,,
289710,2023-02-01 03:44:16,-3.1106623,107.9409132,541.830726,,,573.94229297245,0,43.2176808,586.01707912,930.27562032,14,0,29.8624,573.94229297245,541.830726,43.2176808,618.39568908,4.026492,1.565858,-1.565858,40.7, 23.8, 36.5,0,0,1024,1024,1024,1024,0,0,0,0,0,0,0,100,3.779,3.762,3.77,3.763,0,0,0.017,87.53,573.94229297245,541.830726,0,,
289910,2023-02-01 03:44:16,-3.1106503,107.9409463,541.830726,,,573.94229297245,0,44.3585202,579.68505792,943.10370472,14,0,29.8624,573.94229297245,541.830726,44.3585202,618.39568908,4.250186,1.342164,-1.565858,44.6, 24.5, 37.4,0,0,1024,1024,1024,1024,0,0,0,0,0,0,0,100,3.779,3.762,3.77,3.763,0,0,0.017,87.53,573.94229297245,541.830726,0,,
290100,2023-02-01 03:44:16,-3.1106398,107.9409808,548.5072354,,,580.61880237245,0,45.5440984,572.82482148,956.24346892,14,0,29.8624,580.61880237245,548.5072354,45.5440984,618.39568908,4.47388,1.11847,-1.565858,48.7, 25.5, 39.4,0,0,1024,1024,1024,1024,0,0,0,0,0,0,0,100,3.779,3.762,3.77,3.763,0,0,0.017,87.53,580.61880237245,548.5072354,0,,
290300,2023-02-01 03:44:16,-3.1106309,107.9410167,551.28938772,,,583.40095469245,0,46.7744154,565.41340392,969.72115964,14,0,29.8624,583.40095469245,551.28938772,46.7744154,618.39568908,4.47388,0.894776,-1.342164,54, 26.1, 41,0,0,1024,1024,1024,1024,0,0,0,0,0,0,0,100,3.779,3.762,3.77,3.763,0,0,0.017,87.53,583.40095469245,551.28938772,0,,
290510,2023-02-01 03:44:17,-3.110624,107.9410542,556.58466348,,,588.69623045245,0,48.0047324,557.30316744,983.6122362,14,0,29.6636,588.69623045245,556.58466348,48.0047324,618.39568908,4.697574,0.671082,-1.342164,60.7, 26, 44,0,0,1024,1024,1024,1024,0,0,0,0,0,0,0,100,3.784,3.771,3.771,3.776,0,0,0.016,87.53,588.69623045245,556.58466348,0,,
290700,2023-02-01 03:44:17,-3.1106196,107.941093,559.6456872,,,591.75725417245,0,49.2574188,548.44489944,997.83795844,14,0,29.6636,591.75725417245,559.6456872,49.2574188,618.39568908,4.921268,0.447388,-1.342164,68.4, 25.6, 47.3,0,0,1024,1024,1024,1024,0,0,0,0,0,0,0,100,3.784,3.771,3.771,3.776,0,0,0.016,87.53,591.75725417245,559.6456872,0,,
290910,2023-02-01 03:44:17,-3.110618,107.941133,564.10106792,,,596.21263489245,0,50.554844,538.76970228,1012.42129224,13,0,29.6636,596.21263489245,564.10106792,50.554844,618.39568908,5.144962,0,-1.342164,76.2, 25.8, 48.9,0,0,1024,1024,1024,1024,0,0,0,0,0,0,0,100,3.784,3.771,3.771,3.776,0,0,0.016,87.53,596.21263489245,564.10106792,0,,
291110,2023-02-01 03:44:17,-3.1106198,107.9411741,569.67521508,,,601.78678205245,0,51.8075304,528.12993816,1027.4114502,13,0,29.6636,601.78678205245,569.67521508,51.8075304,618.39568908,5.144962,-0.447388,-1.342164,84.7, 25.3, 51.3,0,0,1024,1024,1024,1024,0,0,0,0,0,0,0,100,3.784,3.771,3.771,3.776,0,0,0.016,87.53,601.78678205245,569.67521508,0,,
291310,2023-02-01 03:44:17,-3.1106254,107.9412156,569.67521508,,,601.78678205245,0,52.8141534,516.56169632,1042.6673562,14,0,29.6636,601.78678205245,569.67521508,52.8141534,618.39568908,5.144962,-0.894776,-1.342164,94.2, 23.8, 52.4,0,0,1024,1024,1024,1024,0,0,0,0,0,0,0,100,3.784,3.771,3.771,3.776,0,0,0.016,87.53,601.78678205245,569.67521508,0,,
291510,2023-02-01 03:44:18,-3.1106351,107.9412571,574.13387664,,,606.24544361245,0,53.68656,504.04529172,1058.19557192,14,0,29.8542,606.24544361245,574.13387664,53.68656,618.39568908,5.144962,-1.342164,-1.342164,103.5, 22.9, 52.1,0,0,1024,1024,1024,1024,0,0,0,0,0,0,0,100,3.769,3.762,3.764,3.759,0,0,0.017,87.53,606.24544361245,574.13387664,0,,
291710,2023-02-01 03:44:18,-3.1106485,107.9412983,578.0347954,,,610.14636237245,0,54.4247502,490.72180048,1073.97969316,14,0,29.8542,610.14636237245,578.0347954,54.4247502,618.39568908,5.144962,-1.789552,-1.342164,111.7, 23.5, 52.3,0,0,1024,1024,1024,1024,0,0,0,0,0,0,0,100,3.769,3.762,3.764,3.759,0,0,0.017,87.53,610.14636237245,578.0347954,0,,
291900,2023-02-01 03:44:18,-3.1106651,107.9413386,581.1023808,,,613.21394777245,0,54.7826606,476.83072392,1089.8622396,14,0,29.8542,613.21394777245,581.1023808,54.7826606,618.39568908,4.921268,-2.23694,-1.342164,119.8, 24.1, 52.8,0,0,1024,1024,1024,1024,0,0,0,0,0,0,0,100,3.769,3.762,3.764,3.759,0,0,0.017,87.53,613.21394777245,581.1023808,0,,
292110,2023-02-01 03:44:18,-3.1106853,107.9413775,585.28217096,,,617.39373793245,0,54.8945076,462.32941112,1105.83664956,14,0,29.8542,617.39373793245,585.28217096,54.8945076,618.39568908,4.697574,-2.684328,-1.342164,127.8, 24.1, 51.9,0,0,1024,1024,1024,1024,0,0,0,0,0,0,0,100,3.769,3.762,3.764,3.759,0,0,0.017,87.53,617.39373793245,585.28217096,0,,
292310,2023-02-01 03:44:18,-3.1107087,107.9414145,591.97180372,,,624.08337069245,0,54.7826606,447.40158912,1121.79137448,13,0,29.8542,624.08337069245,591.97180372,54.8945076,618.39568908,4.47388,-3.131716,-1.342164,136, 23.7, 52.2,0,0,1024,1024,1024,1024,0,0,0,0,0,0,0,100,3.769,3.762,3.764,3.759,0,0,0.017,87.53,624.08337069245,591.97180372,0,,
292500,2023-02-01 03:44:19,-3.1107351,107.9414497,595.87272248,,,627.98428945245,0,54.7379218,432.04725792,1137.8281204,14,0,29.7784,627.98428945245,595.87272248,54.8945076,618.39568908,4.250186,-3.35541,-1.342164,144.9, 22.7, 53.1,0,0,1024,1024,1024,1024,0,0,0,0,0,0,0,100,3.773,3.762,3.764,3.763,0,0,0.017,87.71,627.98428945245,595.87272248,0,,
292710,2023-02-01 03:44:19,-3.1107642,107.9414822,599.21917928,,,631.33074625245,0,54.133948,416.51248052,1153.73363272,14,0,29.7784,631.33074625245,599.21917928,54.8945076,618.39568908,3.802798,-3.802798,-1.342164,153.9, 21.6, 54.5,0,0,1024,1024,1024,1024,0,0,0,0,0,0,0,100,3.773,3.762,3.764,3.763,0,0,0.017,87.71,631.33074625245,599.21917928,0,,
292910,2023-02-01 03:44:19,-3.1107956,107.941512,599.21917928,,,631.33074625245,0,53.7089294,400.8858396,1169.51447312,13,0,29.7784,631.33074625245,599.21917928,54.8945076,618.39568908,3.579104,-4.026492,-1.11847,162.8, 20.6, 52.6,0,0,1024,1024,1024,1024,0,0,0,0,0,0,0,100,3.773,3.762,3.764,3.763,0,0,0.017,87.71,631.33074625245,599.21917928,0,,
293100,2023-02-01 03:44:19,-3.1108291,107.9415388,603.40881196,,,635.52037893245,0,53.0602168,385.2690412,1185.15751824,14,0,29.7784,635.52037893245,603.40881196,54.8945076,618.39568908,3.131716,-4.250186,-1.11847,170.8, 20.2, 50.6,0,0,1024,1024,1024,1024,0,0,0,0,0,0,0,100,3.773,3.762,3.764,3.763,0,0,0.017,87.71,635.52037893245,603.40881196,0,,
293300,2023-02-01 03:44:19,-3.1108641,107.9415626,605.63650232,,,637.74806929245,0,52.3220266,369.83596984,1200.59387044,14,0,29.7784,637.74806929245,605.63650232,54.8945076,618.39568908,2.908022,-4.47388,-1.11847,177.9, 21.9, 51.4,0,0,1024,1024,1024,1024,0,0,0,0,0,0,0,100,3.773,3.762,3.764,3.763,0,0,0.017,87.71,637.74806929245,605.63650232,0,,
293490,2023-02-01 03:44:19,-3.1109001,107.941583,611.49608256,,,643.60764953245,0,50.9574932,354.81956516,1215.68573444,14,0,29.2016,643.60764953245,611.49608256,54.8945076,618.39568908,2.23694,-4.47388,-1.11847,184.8, 22.2, 50.4,0,0,1024,1024,1024,1024,0,0,0,0,0,0,0,100,3.751,3.734,3.731,3.74,0,0,0.019,87.71,643.60764953245,611.49608256,0,,
293680,2023-02-01 03:44:20,-3.1109368,107.9415998,614.00264432,,,646.11421129245,0,49.6153292,340.3707458,1230.40686352,14,0,29.2016,646.11421129245,614.00264432,54.8945076,618.39568908,1.789552,-4.697574,-1.11847,191.8, 21.7, 49,0,0,1024,1024,1024,1024,0,0,0,0,0,0,0,100,3.751,3.734,3.731,3.74,0,0,0.019,87.71,646.11421129245,614.00264432,0,,
293880,2023-02-01 03:44:20,-3.1109738,107.9416133,619.58335316,,,651.69492013245,0,48.2955346,326.571204676,1244.77694272,14,0,29.2016,651.69492013245,619.58335316,54.8945076,618.39568908,1.565858,-4.697574,-1.11847,198.4, 21.7, 48,0,0,1024,1024,1024,1024,0,0,0,0,0,0,0,100,3.751,3.734,3.731,3.74,0,0,0.019,87.71,651.69492013245,619.58335316,0,,
294080,2023-02-01 03:44:20,-3.1110106,107.9416232,619.58335316,,,651.69492013245,0,46.6849378,313.67619114,1258.6778618,14,0,29.2016,651.69492013245,619.58335316,54.8945076,618.39568908,1.11847,-4.47388,-1.11847,203.3, 22.1, 45.3,0,0,1024,1024,1024,1024,0,0,0,0,0,0,0,100,3.751,3.734,3.731,3.74,0,0,0.019,87.71,651.69492013245,619.58335316,0,,
294280,2023-02-01 03:44:20,-3.111047,107.9416299,622.92980996,,,655.04137693245,0,45.1638186,301.711623828,1272.18179924,14,0,29.2016,655.04137693245,622.92980996,54.8945076,618.39568908,0.671082,-4.47388,-1.11847,207.6, 22.1, 39.9,0,0,1024,1024,1024,1024,0,0,0,0,0,0,0,100,3.751,3.734,3.731,3.74,0,0,0.019,87.71,655.04137693245,622.92980996,0,,
294470,2023-02-01 03:44:20,-3.1110829,107.9416339,623.769705,,,655.88127197245,0,44.3137814,290.653552608,1285.36093352,14,0,29.0593,655.88127197245,623.769705,54.8945076,618.39568908,0.223694,-4.47388,-1.11847,211.9, 22.4, 35.2,0,0,1024,1024,1024,1024,0,0,0,0,0,0,0,100,3.704,3.692,3.692,3.692,0,0,0.023,87.71,655.88127197245,623.769705,0,,
294670,2023-02-01 03:44:21,-3.1111182,107.9416356,631.58138504,,,663.69295201245,0,43.3295278,280.499024724,1298.25463472,14,0,29.0593,663.69295201245,631.58138504,54.8945076,618.39568908,0,-4.250186,-1.11847,215.8, 22.7, 31.5,0,0,1024,1024,1024,1024,0,0,0,0,0,0,0,100,3.704,3.692,3.692,3.692,0,0,0.023,87.71,663.69295201245,631.58138504,0,,
294870,2023-02-01 03:44:21,-3.1111527,107.9416354,637.44096528,,,669.55253225245,0,42.2557966,271.265428628,1310.83993696,14,0,29.0593,669.55253225245,637.44096528,54.8945076,618.39568908,-0.223694,-4.250186,-1.342164,219.9, 23.5, 28.2,0,0,1024,1024,1024,1024,0,0,0,0,0,0,0,100,3.704,3.692,3.692,3.692,0,0,0.023,87.71,669.55253225245,637.44096528,0,,
295070,2023-02-01 03:44:21,-3.1111861,107.9416333,637.44096528,,,669.55253225245,0,40.6228304,263.084982172,1323.05122344,14,0,29.0593,669.55253225245,637.44096528,54.8945076,618.39568908,-0.447388,-4.026492,-1.342164,223.4, 24.1, 25.7,0,0,1024,1024,1024,1024,0,0,0,0,0,0,0,100,3.704,3.692,3.692,3.692,0,0,0.023,87.71,669.55253225245,637.44096528,0,,
295260,2023-02-01 03:44:21,-3.1112181,107.9416296,639.4029076,,,671.51447457245,0,39.3477746,256.001648612,1334.80319232,14,0,29.0593,671.51447457245,639.4029076,54.8945076,618.39568908,-0.447388,-3.802798,-1.565858,226.3, 24.4, 23.2,0,0,1024,1024,1024,1024,0,0,0,0,0,0,0,100,3.704,3.692,3.692,3.692,0,0,0.023,87.71,671.51447457245,639.4029076,0,,
295480,2023-02-01 03:44:21,-3.1112494,107.9416247,649.44883968,,,681.56040665245,0,38.7661702,249.770021116,1346.36159164,14,0,29.0325,681.56040665245,649.44883968,54.8945076,618.39568908,-0.671082,-3.802798,-1.342164,226.8, 25.5, 21.4,0,0,1024,1024,1024,1024,0,0,0,0,0,0,0,100,3.699,3.684,3.689,3.691,0,0,0.024,87.89,681.56040665245,649.44883968,0,,
295670,2023-02-01 03:44:22,-3.1112795,107.9416187,649.44883968,,,681.56040665245,0,37.6700696,244.512475016,1357.55909856,14,0,29.0325,681.56040665245,649.44883968,54.8945076,618.39568908,-0.894776,-3.579104,-1.565858,226.2, 26.7, 18.3,0,0,1024,1024,1024,1024,0,0,0,0,0,0,0,100,3.699,3.684,3.689,3.691,0,0,0.024,87.89,681.56040665245,649.44883968,0,,
295880,2023-02-01 03:44:22,-3.1113089,107.9416118,654.199496,,,686.31106297245,0,37.021357,240.078419756,1368.57615928,14,0,29.0325,686.31106297245,654.199496,54.8945076,618.39568908,-0.894776,-3.579104,-1.565858,227.7, 26.6, 18.4,0,0,1024,1024,1024,1024,0,0,0,0,0,0,0,100,3.699,3.684,3.689,3.691,0,0,0.024,87.89,686.31106297245,654.199496,0,,
296080,2023-02-01 03:44:22,-3.1113377,107.9416044,657.2670814,,,689.37864837245,0,36.573969,236.348104676,1379.42589716,14,0,29.0325,689.37864837245,657.2670814,54.8945076,618.39568908,-0.894776,-3.579104,-1.565858,230.4, 26.4, 18.7,0,0,1024,1024,1024,1024,0,0,0,0,0,0,0,100,3.699,3.684,3.689,3.691,0,0,0.024,87.89,689.37864837245,657.2670814,0,,
296270,2023-02-01 03:44:22,-3.1113656,107.9415962,661.45671408,,,693.56828105245,0,35.679193,233.481634768,1390.03285288,14,0,29.0325,693.56828105245,661.45671408,54.8945076,618.39568908,-1.11847,-3.35541,-1.565858,233, 26.7, 22.9,0,0,1024,1024,1024,1024,0,0,0,0,0,0,0,100,3.699,3.684,3.689,3.691,0,0,0.024,87.89,693.56828105245,661.45671408,0,,
296480,2023-02-01 03:44:22,-3.1113924,107.9415871,665.37403704,,,697.48560401245,0,34.67257,231.546267252,1400.35765636,14,0,29.1176,697.48560401245,665.37403704,54.8945076,618.39568908,-1.11847,-3.35541,-1.565858,234.3, 26.9, 21.8,0,0,1024,1024,1024,1024,0,0,0,0,0,0,0,100,3.701,3.686,3.689,3.691,0,0,0.024,87.89,697.48560401245,665.37403704,0,,
296680,2023-02-01 03:44:23,-3.1114186,107.9415771,672.6378168,,,704.74938377245,0,34.6054618,230.448498188,1410.58731548,14,0,29.1176,704.74938377245,672.6378168,54.8945076,618.39568908,-1.342164,-3.131716,-1.565858,235.7, 26.6, 22.6,0,0,1024,1024,1024,1024,0,0,0,0,0,0,0,100,3.701,3.686,3.689,3.691,0,0,0.024,87.89,704.74938377245,672.6378168,0,,
296870,2023-02-01 03:44:23,-3.1114446,107.9415665,674.5899166,,,706.70148357245,0,34.4936148,230.03117534,1420.83009796,14,0,29.1176,706.70148357245,674.5899166,54.8945076,618.39568908,-1.342164,-3.131716,-1.342164,238.6, 26.8, 26.4,0,0,1024,1024,1024,1024,0,0,0,0,0,0,0,100,3.701,3.686,3.689,3.691,0,0,0.024,87.89,706.70148357245,674.5899166,0,,
297070,2023-02-01 03:44:23,-3.1114695,107.941555,679.34057292,,,711.45213989245,0,33.2632978,230.518051996,1430.83337912,14,0,29.1176,711.45213989245,679.34057292,54.8945076,618.39568908,-1.565858,-2.908022,-1.565858,241.7, 26.9, 27.7,0,0,1024,1024,1024,1024,0,0,0,0,0,0,0,100,3.701,3.686,3.689,3.691,0,0,0.024,87.89,711.45213989245,679.34057292,0,,
297270,2023-02-01 03:44:23,-3.1114927,107.9415429,685.77101932,,,717.88258629245,0,31.652701,231.83891818,1440.37734268,14,0,29.1176,717.88258629245,685.77101932,54.8945076,618.39568908,-1.565858,-2.684328,-1.565858,244.9, 26.9, 27.7,0,0,1024,1024,1024,1024,0,0,0,0,0,0,0,100,3.701,3.686,3.689,3.691,0,0,0.024,87.89,717.88258629245,685.77101932,0,,
297470,2023-02-01 03:44:23,-3.1115139,107.9415301,690.80054704,,,722.91211401245,0,30.2657982,233.990821136,1449.4094952,14,0,29.0856,722.91211401245,690.80054704,54.8945076,618.39568908,-1.565858,-2.460634,-1.565858,248.2, 26.5, 28.3,0,0,1024,1024,1024,1024,0,0,0,0,0,0,0,100,3.696,3.689,3.693,3.691,0,0,0.023,88.07,722.91211401245,690.80054704,0,,
297680,2023-02-01 03:44:24,-3.1115335,107.9415166,694.9967414,,,727.10830837245,0,29.3262834,236.858275296,1458.087317,14,0,29.0856,727.10830837245,694.9967414,54.8945076,618.39568908,-1.789552,-2.460634,-1.565858,251, 26.1, 27.8,0,0,1024,1024,1024,1024,0,0,0,0,0,0,0,100,3.696,3.689,3.693,3.691,0,0,0.023,88.07,727.10830837245,694.9967414,0,,
297880,2023-02-01 03:44:24,-3.111552,107.9415028,696.95540288,,,729.06696985245,0,28.0288582,240.198170416,1466.50595244,14,0,29.0856,729.06696985245,696.95540288,54.8945076,618.39568908,-1.789552,-2.23694,-1.565858,253.6, 25.7, 27,0,0,1024,1024,1024,1024,0,0,0,0,0,0,0,100,3.696,3.689,3.693,3.691,0,0,0.023,88.07,729.06696985245,696.95540288,0,,
298070,2023-02-01 03:44:24,-3.1115695,107.9414892,696.95540288,,,729.06696985245,0,26.9774964,243.778551108,1474.58666136,14,0,29.0856,729.06696985245,696.95540288,54.8945076,618.39568908,-1.789552,-2.013246,-1.565858,256.2, 24.8, 25.2,0,0,1024,1024,1024,1024,0,0,0,0,0,0,0,100,3.696,3.689,3.693,3.691,0,0,0.023,88.07,729.06696985245,696.95540288,0,,
298270,2023-02-01 03:44:24,-3.111586,107.9414752,701.99149228,,,734.10305925245,0,26.4853696,247.77231764,1482.47708156,14,0,29.0856,734.10305925245,701.99149228,54.8945076,618.39568908,-1.789552,-1.789552,-1.565858,258.3, 24.3, 24,0,0,1024,1024,1024,1024,0,0,0,0,0,0,0,100,3.696,3.689,3.693,3.691,0,0,0.023,88.07,734.10305925245,701.99149228,0,,
298460,2023-02-01 03:44:24,-3.1116014,107.9414606,705.90881524,,,738.02038221245,0,26.2169368,252.21949626,1490.21330228,14,0,29.3687,738.02038221245,705.90881524,54.8945076,618.39568908,-2.013246,-1.789552,-1.342164,259.7, 24.2, 21.8,0,0,1024,1024,1024,1024,0,0,0,0,0,0,0,100,3.716,3.686,3.705,3.709,0,0,0.022,88.07,738.02038221245,705.90881524,0,,
298650,2023-02-01 03:44:25,-3.1116159,107.9414455,712.89700444,,,745.00857141245,0,26.0156122,257.039378304,1497.84781696,14,0,29.3687,745.00857141245,712.89700444,54.8945076,618.39568908,-2.013246,-1.565858,-1.342164,260.6, 24.1, 21.4,0,0,1024,1024,1024,1024,0,0,0,0,0,0,0,100,3.716,3.686,3.705,3.709,0,0,0.022,88.07,745.00857141245,712.89700444,0,,
298850,2023-02-01 03:44:25,-3.1116294,107.94143,714.85566592,,,746.96723289245,0,25.612963,262.170612064,1505.33797468,14,0,29.3687,746.96723289245,714.85566592,54.8945076,618.39568908,-2.013246,-1.565858,-1.342164,262.6, 24, 18.9,0,0,1024,1024,1024,1024,0,0,0,0,0,0,0,100,3.716,3.686,3.705,3.709,0,0,0.022,88.07,746.96723289245,714.85566592,0,,
299040,2023-02-01 03:44:25,-3.1116418,107.9414141,721.01052176,,,753.12208873245,0,25.0984668,267.586294652,1512.69033712,14,0,29.3687,753.12208873245,721.01052176,54.8945076,618.39568908,-2.013246,-1.342164,-1.342164,264.5, 24.4, 18,0,0,1024,1024,1024,1024,0,0,0,0,0,0,0,100,3.716,3.686,3.705,3.709,0,0,0.022,88.07,753.12208873245,721.01052176,0,,
299250,2023-02-01 03:44:25,-3.1116531,107.9413982,721.28939316,,,753.40096013245,0,24.3602766,273.113853884,1519.7999174,14,0,29.3687,753.40096013245,721.28939316,54.8945076,618.39568908,-2.013246,-1.11847,-1.342164,265.6, 24.8, 17.8,0,0,1024,1024,1024,1024,0,0,0,0,0,0,0,100,3.716,3.686,3.705,3.709,0,0,0.022,88.07,753.40096013245,721.28939316,0,,
299450,2023-02-01 03:44:25,-3.1116633,107.9413821,726.88978704,,,759.00135401245,0,24.0694744,278.801190024,1526.74545568,14,0,29.3324,759.00135401245,726.88978704,54.8945076,618.39568908,-2.23694,-1.11847,-1.342164,266.8, 24.6, 16.6,0,0,1024,1024,1024,1024,0,0,0,0,0,0,0,100,3.713,3.704,3.707,3.706,0,0,0.021,88.25,759.00135401245,726.88978704,0,,
299640,2023-02-01 03:44:26,-3.1116726,107.9413659,729.96721496,,,762.07878193245,0,23.6444558,284.589247952,1533.55319868,14,0,29.3324,762.07878193245,729.96721496,54.8945076,618.39568908,-2.23694,-1.11847,-1.342164,267.7, 24.9, 13.8,0,0,1024,1024,1024,1024,0,0,0,0,0,0,0,100,3.713,3.704,3.707,3.706,0,0,0.021,88.25,762.07878193245,729.96721496,0,,
299850,2023-02-01 03:44:26,-3.1116812,107.9413495,738.64503676,,,770.75660373245,0,23.3983924,290.498040792,1540.30188656,14,0,29.3324,770.75660373245,738.64503676,54.8945076,618.39568908,-2.23694,-0.894776,-1.342164,270.8, 24.3, 14.2,0,0,1024,1024,1024,1024,0,0,0,0,0,0,0,100,3.713,3.704,3.707,3.706,0,0,0.021,88.25,770.75660373245,738.64503676,0,,
300050,2023-02-01 03:44:26,-3.1116891,107.941333,742.28676916,,,774.39833613245,0,23.3536536,296.480324448,1546.96855344,14,0,29.3324,774.39833613245,742.28676916,54.8945076,618.39568908,-2.23694,-0.894776,-1.342164,272.1, 24.2, 14.6,0,0,1024,1024,1024,1024,0,0,0,0,0,0,0,100,3.713,3.704,3.707,3.706,0,0,0.021,88.25,774.39833613245,742.28676916,0,,
300240,2023-02-01 03:44:26,-3.1116959,107.9413166,745.08532568,,,777.19689265245,0,22.593094,302.453093668,1553.43836992,14,0,29.3324,777.19689265245,745.08532568,54.8945076,618.39568908,-2.23694,-0.671082,-1.342164,273.3, 24.9, 14.2,0,0,1024,1024,1024,1024,0,0,0,0,0,0,0,100,3.713,3.704,3.707,3.706,0,0,0.021,88.25,777.19689265245,745.08532568,0,,
300430,2023-02-01 03:44:26,-3.1117018,107.9413001,745.08532568,,,777.19689265245,0,22.2351836,308.479012496,1559.82288456,14,0,29.2901,777.19689265245,745.08532568,54.8945076,618.39568908,-2.23694,-0.671082,-1.565858,273.9, 25, 11.8,0,0,1024,1024,1024,1024,0,0,0,0,0,0,0,100,3.721,3.691,3.707,3.705,0,0,0.021,88.25,777.19689265245,745.08532568,0,,
300630,2023-02-01 03:44:27,-3.1117071,107.9412837,749.56695312,,,781.67852009245,0,22.0114896,314.478684604,1566.10241232,14,0,29.2901,781.67852009245,749.56695312,54.8945076,618.39568908,-2.23694,-0.447388,-1.565858,274.2, 25.2, 10.8,0,0,1024,1024,1024,1024,0,0,0,0,0,0,0,100,3.721,3.691,3.707,3.705,0,0,0.021,88.25,781.67852009245,749.56695312,0,,
