time(millisecond),datetime(utc),latitude,longitude,height_above_takeoff(feet),height_above_ground_at_drone_location(feet),ground_elevation_at_drone_location(feet),altitude_above_seaLevel(feet),height_sonar(feet),speed(mph),distance(feet),mileage(feet),satellites,gpslevel,voltage(v),max_altitude(feet),max_ascent(feet),max_speed(mph),max_distance(feet), xSpeed(mph), ySpeed(mph), zSpeed(mph), compass_heading(degrees), pitch(degrees), roll(degrees),isPhoto,isVideo,rc_elevator,rc_aileron,rc_throttle,rc_rudder,rc_elevator(percent),rc_aileron(percent),rc_throttle(percent),rc_rudder(percent),gimbal_heading(degrees),gimbal_pitch(degrees),gimbal_roll(degrees),battery_percent,voltageCell1,voltageCell2,voltageCell3,voltageCell4,voltageCell5,voltageCell6,current(A),battery_temperature(f),altitude(feet),ascent(feet),flycStateRaw,flycState,message
32410,1969-12-31 16:00:00,0,0,0,Available with any HD 360 subscription,Available with any HD 360 subscription,89.963017314512,0,0,0,0,0,0,0,89.963017314512,0,0,0,0,0,0,0, 0, 0,0,0,1024,1024,1024,1024,0,0,0,0,0,0,0,100,4.047,4.046,4.046,4.047,0,0,0,85.55,89.963017314512,0,0,,"[mavlink] [FMU-WiP] FTP: seq 3 sess 0 opcode 7 size 239 offset 0"
32710,1969-12-31 16:00:00,0,0,0,,,89.963017314512,0,0,0,0,0,0,0,89.963017314512,0,0,0,0,0,0,0, 0, 0,0,0,1024,1024,1024,1024,0,0,0,0,0,0,0,100,4.047,4.046,4.046,4.047,0,0,0,85.55,89.963017314512,0,0,,"[mavlink] [FMU-WiP] FTP: seq 5 sess 0 opcode 7 size 17 offset 239"
34700,1969-12-31 16:00:00,0,0,0,,,89.963017314512,0,0,0,0,0,0,0,89.963017314512,0,0,0,0,0,0,0, 0, 0,0,0,1024,1024,1024,1024,0,0,0,0,0,0,0,100,4.047,4.046,4.046,4.047,0,0,0,85.55,89.963017314512,0,0,,"[mavlink] Received new license file from WiP"
46810,1969-12-31 16:00:00,0,0,0,,,89.963017314512,0,0,0,0,0,0,0,89.963017314512,0,0,0,0,0,0,0, 0, 0,0,0,1024,1024,1024,1024,0,0,0,0,0,0,0,100,4.047,4.046,4.046,4.047,0,0,0,85.55,89.963017314512,0,0,,"[mavlink] Resend PPK license (128) because OBC restarted"
48830,1969-12-31 16:00:00,0,0,0,,,89.963017314512,0,0,0,0,0,0,0,89.963017314512,0,0,0,0,0,0,0, 0, 0,0,0,1024,1024,1024,1024,0,0,0,0,0,0,0,100,4.047,4.046,4.046,4.047,0,0,0,85.55,89.963017314512,0,0,,"[mavlink] Delete work buffers due to inactivity"
50240,1969-12-31 16:00:00,0,0,0,,,89.963017314512,0,0,0,0,0,0,0,89.963017314512,0,0,0,0,0,0,0, 0, 0,0,0,1024,1024,1024,1024,0,0,0,0,0,0,0,100,4.047,4.046,4.046,4.047,0,0,0,85.55,89.963017314512,0,0,,"[mavlink] Disabled OPEN_DRONE_ID_SYSTEM_WINGTRA fallback"
50810,1969-12-31 16:00:00,0,0,0,,,89.963017314512,0,0,0,0,0,0,0,89.963017314512,0,0,0,0,0,0,0, 0, 0,0,0,1024,1024,1024,1024,0,0,0,0,0,0,0,100,4.047,4.046,4.046,4.047,0,0,0,85.55,89.963017314512,0,0,,"[uORB] orb_advertise_multi: failed to set queue size (mavlink_to_wdeb)"
51670,1969-12-31 16:00:00,0,0,0,,,89.963017314512,0,0,0,0,0,0,0,89.963017314512,0,0,0,0,0,0,0, 0, 0,0,0,1024,1024,1024,1024,0,0,0,0,0,0,0,100,4.047,4.046,4.046,4.047,0,0,0,85.55,89.963017314512,0,0,,"[wdeb_node_base] FMU: CCU: @0x00049F5D1B3A4488: Shutter count: 0x00000000"
51900,2026-06-04 04:49:17,-2.0607601,105.1652433,0,,,89.963017314512,0,0.1565858,0,0,11,0,0,89.963017314512,0,0.1565858,0,0,0,0,0, 0, 0,0,0,1024,1024,1024,1024,0,0,0,0,0,0,0,100,4.047,4.046,4.046,4.047,0,0,0,85.55,89.963017314512,0,0,,"Flying over urban terrain."
52150,2026-06-04 04:49:17,-2.0607602,105.1652433,0,,,89.963017314512,0,0.0671082,0.036484909304,0.036484909304,11,0,0,89.963017314512,0,0.1565858,0.036484909304,0,0,0,103, 89.8, 4.7,0,0,1024,1024,1024,1024,0,0,0,0,0,0,0,100,4.047,4.046,4.046,4.047,0,0,0,85.55,89.963017314512,0,0,,
52360,2026-06-04 04:49:17,-2.0607602,105.1652433,-1.91585636052,,,88.047160953992,0,0.0671082,0.036484909304,0.036484909304,11,0,0,89.963017314512,0,0.1565858,0.036484909304,0,0,0,115.2, 89.9, 16.9,0,0,1024,1024,1024,1024,0,0,0,0,0,0,0,100,4.047,4.046,4.046,4.047,0,0,0,85.55,88.047160953992,-1.91585636052,0,,
52560,2026-06-04 04:49:18,-2.0607603,105.1652433,-1.63844821516,,,88.324569099352,0,0.223694,0.072969818608,0.072969818608,11,0,0,89.963017314512,0,0.223694,0.072969818608,0,0,0,131.9, 89.9, 33.6,0,0,1024,1024,1024,1024,0,0,0,0,0,0,0,100,4.047,4.046,4.046,4.047,0,0,0,85.55,88.324569099352,-1.63844821516,0,,
52760,2026-06-04 04:49:18,-2.0607603,105.1652433,-0.5461450306,,,89.416872283912,0,0.223694,0.072969818608,0.072969818608,11,0,32.4499,89.963017314512,0,0.223694,0.072969818608,0,0,0,144.8, 89.9, 46.5,0,0,1024,1024,1024,1024,0,0,0,0,0,0,0,100,4.047,4.046,4.046,4.047,0,0,0,85.55,89.416872283912,-0.5461450306,0,,"[undulation] Received undulation: 16.351 at location (-2.06076, 105.16525)"
52960,2026-06-04 04:49:18,-2.0607604,105.1652432,-1.36970476824,,,88.593312546272,0,0.0447388,0.115368113928,0.124550857004,11,0,32.4499,89.963017314512,0,0.223694,0.115368113928,0,0,0,153.7, 89.9, 55.3,0,0,1024,1024,1024,1024,0,0,0,0,0,0,0,100,4.047,4.046,4.046,4.047,0,0,0,85.55,88.593312546272,-1.36970476824,0,,
53160,2026-06-04 04:49:18,-2.0607605,105.1652432,-2.18458668408,,,87.778430630432,0,0.0223694,0.150425529748,0.161035766308,11,0,32.4499,89.963017314512,0,0.223694,0.150425529748,0,0,0,153.1, 89.9, 54.7,0,0,1024,1024,1024,1024,0,0,0,0,0,0,0,100,4.047,4.046,4.046,4.047,0,0,0,85.55,87.778430630432,-2.18458668408,0,,
53370,2026-06-04 04:49:18,-2.0607605,105.1652432,-1.91585636052,,,88.047160953992,0,0.0223694,0.150425529748,0.161035766308,11,0,32.4499,89.963017314512,0,0.223694,0.150425529748,0,0,0,157.5, 89.9, 59.1,0,0,1024,1024,1024,1024,0,0,0,0,0,0,0,100,4.047,4.046,4.046,4.047,0,0,0,85.55,88.047160953992,-1.91585636052,0,,
53570,2026-06-04 04:49:19,-2.0607605,105.1652431,-1.36970476824,,,88.593312546272,0,0.0223694,0.163144362176,0.197497053564,11,0,32.4499,89.963017314512,0,0.223694,0.163144362176,0,0,0,161.3, 89.9, 62.9,0,0,1024,1024,1024,1024,0,0,0,0,0,0,0,100,4.047,4.046,4.046,4.047,0,0,0,85.55,88.593312546272,-1.36970476824,0,,
53770,2026-06-04 04:49:19,-2.0607605,105.1652431,-0.5461450306,,,89.416872283912,0,0.0223694,0.163144362176,0.197497053564,11,0,32.4407,89.963017314512,0,0.223694,0.163144362176,0,0,0,161.7, 89.9, 63.3,0,0,1024,1024,1024,1024,0,0,0,0,0,0,0,100,4.047,4.046,4.046,4.047,0,0,0,85.55,89.416872283912,-0.5461450306,0,,
53970,2026-06-04 04:49:19,-2.0607606,105.1652431,-0.81488847752,,,89.148128836992,0,0.0447388,0.19645998004,0.233981962868,11,0,32.4407,89.963017314512,0,0.223694,0.19645998004,0,0,0,161.5, 89.9, 63.1,0,0,1024,1024,1024,1024,0,0,0,0,0,0,0,100,4.047,4.046,4.046,4.047,0,0,0,85.55,89.148128836992,-0.81488847752,0,,
54170,2026-06-04 04:49:19,-2.0607606,105.1652431,-0.81488847752,,,89.148128836992,0,0.0894776,0.19645998004,0.233981962868,11,0,32.4407,89.963017314512,0,0.223694,0.19645998004,0,0,0,160.2, 89.9, 61.8,0,0,1024,1024,1024,1024,0,0,0,0,0,0,0,100,4.047,4.046,4.046,4.047,0,0,0,85.55,89.148128836992,-0.81488847752,0,,
54370,2026-06-04 04:49:19,-2.0607606,105.1652431,-1.63844821516,,,88.324569099352,0,0.0894776,0.19645998004,0.233981962868,11,0,32.4407,89.963017314512,0,0.223694,0.19645998004,0,0,0,157.9, 89.9, 59.4,0,0,1024,1024,1024,1024,0,0,0,0,0,0,0,100,4.047,4.046,4.046,4.047,0,0,0,85.55,88.324569099352,-1.63844821516,0,,
54570,2026-06-04 04:49:20,-2.0607606,105.1652431,-0.26874016608,,,89.694277148432,0,0,0.19645998004,0.233981962868,11,0,32.4407,89.963017314512,0,0.223694,0.19645998004,0,0,0,152.2, 89.9, 53.8,0,0,1024,1024,1024,1024,0,0,0,0,0,0,0,100,4.047,4.046,4.046,4.047,0,0,0,85.55,89.694277148432,-0.26874016608,0,,
54770,2026-06-04 04:49:20,-2.0607606,105.1652431,-1.36970476824,,,88.593312546272,0,0,0.19645998004,0.233981962868,11,0,32.4143,89.963017314512,0,0.223694,0.19645998004,0,0,0,143.6, 89.9, 45.2,0,0,1024,1024,1024,1024,0,0,0,0,0,0,0,100,4.048,4.046,4.046,4.047,0,0,0,85.55,88.593312546272,-1.36970476824,0,,
54970,2026-06-04 04:49:20,-2.0607605,105.1652431,-1.36970476824,,,88.593312546272,0,0.0671082,0.163144362176,0.270466872172,11,0,32.4143,89.963017314512,0,0.223694,0.19645998004,0,0,0,140.9, 89.9, 42.6,0,0,1024,1024,1024,1024,0,0,0,0,0,0,0,100,4.048,4.046,4.046,4.047,0,0,0,85.55,88.593312546272,-1.36970476824,0,,
55170,2026-06-04 04:49:20,-2.0607604,105.165243,-1.63844821516,,,88.324569099352,0,0.0671082,0.15474245902,0.322047582484,11,0,32.4143,89.963017314512,0,0.223694,0.19645998004,0,0,0,133.9, 89.9, 35.5,0,0,1024,1024,1024,1024,0,0,0,0,0,0,0,100,4.048,4.046,4.046,4.047,0,0,0,85.55,88.324569099352,-1.63844821516,0,,
55380,2026-06-04 04:49:21,-2.0607604,105.165243,-1.63844821516,,,88.324569099352,0,0.0671082,0.15474245902,0.322047582484,11,0,32.4143,89.963017314512,0,0.223694,0.19645998004,0,0,0,134, 89.9, 35.5,0,0,1024,1024,1024,1024,0,0,0,0,0,0,0,100,4.048,4.046,4.046,4.047,0,0,0,85.55,88.324569099352,-1.63844821516,0,,
55580,2026-06-04 04:49:21,-2.0607602,105.165243,-1.63844821516,,,88.324569099352,0,0.0671082,0.11530840264,0.39501641684,11,0,32.4143,89.963017314512,0,0.223694,0.19645998004,0,0,0,135.7, 89.9, 37.2,0,0,1024,1024,1024,1024,0,0,0,0,0,0,0,100,4.048,4.046,4.046,4.047,0,0,0,85.55,88.324569099352,-1.63844821516,0,,
55780,2026-06-04 04:49:21,-2.0607601,105.165243,-1.63844821516,,,88.324569099352,0,0.0447388,0.109384189852,0.43150263848,11,0,32.4234,89.963017314512,0,0.223694,0.19645998004,0,0,0,136.5, 89.9, 38,0,0,1024,1024,1024,1024,0,0,0,0,0,0,0,100,4.048,4.046,4.046,4.047,0,0,0,85.55,88.324569099352,-1.63844821516,0,,
55970,2026-06-04 04:49:21,-2.06076,105.165243,-1.09229990372,,,88.870717410792,0,0.0671082,0.11530840264,0.46798886012,11,0,32.4234,89.963017314512,0,0.223694,0.19645998004,0,0,0,136.3, 89.9, 37.9,0,0,1024,1024,1024,1024,0,0,0,0,0,0,0,100,4.048,4.046,4.046,4.047,0,0,0,85.55,88.870717410792,-1.09229990372,0,,
56170,2026-06-04 04:49:21,-2.0607599,105.1652429,-1.63844821516,,,88.324569099352,0,0.111847,0.163081041964,0.51956694576,11,0,32.4234,89.963017314512,0,0.223694,0.19645998004,0,0,0,136.8, 89.9, 38.4,0,0,1024,1024,1024,1024,0,0,0,0,0,0,0,100,4.048,4.046,4.046,4.047,0,0,0,85.55,88.324569099352,-1.63844821516,0,,
56380,2026-06-04 04:49:22,-2.0607599,105.1652429,-0.81488847752,,,89.148128836992,0,0.111847,0.163081041964,0.51956694576,11,0,32.4234,89.963017314512,0,0.223694,0.19645998004,0,0,0,135.2, 89.9, 36.8,0,0,1024,1024,1024,1024,0,0,0,0,0,0,0,100,4.048,4.046,4.046,4.047,0,0,0,85.55,89.148128836992,-0.81488847752,0,,
56580,2026-06-04 04:49:22,-2.0607598,105.1652429,-0.26874016608,,,89.694277148432,0,0.0671082,0.1823490872,0.5560531674,11,0,32.4234,89.963017314512,0,0.223694,0.19645998004,0,0,0,136, 89.9, 37.6,0,0,1024,1024,1024,1024,0,0,0,0,0,0,0,100,4.048,4.046,4.046,4.047,0,0,0,85.55,89.694277148432,-0.26874016608,0,,
56780,2026-06-04 04:49:22,-2.0607596,105.1652429,-0.26874016608,,,89.694277148432,0,0.0447388,0.233558734508,0.62902232984,11,0,32.4226,89.963017314512,0,0.223694,0.233558734508,0,0,0,135.7, 89.9, 37.3,0,0,1024,1024,1024,1024,0,0,0,0,0,0,0,100,4.048,4.046,4.046,4.047,0,0,0,85.55,89.694277148432,-0.26874016608,0,,
56970,2026-06-04 04:49:22,-2.0607596,105.1652428,-1.63844821516,,,88.324569099352,0,0.0447388,0.257904207728,0.6654855856,13,0,32.4226,89.963017314512,0,0.223694,0.257904207728,0,0,0,136.7, 89.9, 38.3,0,0,1024,1024,1024,1024,0,0,0,0,0,0,0,100,4.048,4.046,4.046,4.047,0,0,0,85.55,88.324569099352,-1.63844821516,0,,
57170,2026-06-04 04:49:22,-2.0607594,105.1652428,-1.36970476824,,,88.593312546272,0,0.0223694,0.313786755448,0.73845474804,13,0,32.4226,89.963017314512,0,0.223694,0.313786755448,0,0,0,135.5, 89.9, 37.1,0,0,1024,1024,1024,1024,0,0,0,0,0,0,0,100,4.048,4.046,4.046,4.047,0,0,0,85.55,88.593312546272,-1.36970476824,0,,
57390,2026-06-04 04:49:23,-2.0607594,105.1652428,-1.09229990372,,,88.870717410792,0,0.0223694,0.313786755448,0.73845474804,13,0,32.4226,89.963017314512,0,0.223694,0.313786755448,0,0,0,133.2, 89.9, 34.9,0,0,1024,1024,1024,1024,0,0,0,0,0,0,0,100,4.048,4.046,4.046,4.047,0,0,0,85.55,88.870717410792,-1.09229990372,0,,
57590,2026-06-04 04:49:23,-2.0607591,105.1652427,-1.63844821516,,,88.324569099352,0,0.0894776,0.4254101186,0.8538222058,13,0,32.4226,89.963017314512,0,0.223694,0.4254101186,0,0,0,130.3, 89.9, 31.9,0,0,1024,1024,1024,1024,0,0,0,0,0,0,0,100,4.048,4.046,4.046,4.047,0,0,0,85.55,88.324569099352,-1.63844821516,0,,
57780,2026-06-04 04:49:23,-2.060759,105.1652427,-1.63844821516,,,88.324569099352,0,0.223694,0.4570866288,0.89030842744,13,0,32.4135,89.963017314512,0,0.223694,0.4570866288,0,0,0,129.6, 89.9, 31.2,0,0,1024,1024,1024,1024,0,0,0,0,0,0,0,100,4.048,4.046,4.046,4.047,0,0,0,85.55,88.324569099352,-1.63844821516,0,,
57990,2026-06-04 04:49:23,-2.0607589,105.1652426,-0.81488847752,,,89.148128836992,0,0.0671082,0.50678151228,0.94188979392,13,0,32.4135,89.963017314512,0,0.223694,0.50678151228,0,0,0,126.7, 89.9, 28.3,0,0,1024,1024,1024,1024,0,0,0,0,0,0,0,100,4.048,4.046,4.046,4.047,0,0,0,85.55,89.148128836992,-0.81488847752,0,,
58190,2026-06-04 04:49:23,-2.0607587,105.1652426,-0.5461450306,,,89.416872283912,0,0.1789552,0.57100723612,1.01485895636,13,0,32.4135,89.963017314512,0,0.223694,0.57100723612,0,0,0,121.4, 89.8, 22.9,0,0,1024,1024,1024,1024,0,0,0,0,0,0,0,100,4.048,4.046,4.046,4.047,0,0,0,85.55,89.416872283912,-0.5461450306,0,,
58390,2026-06-04 04:49:24,-2.0607587,105.1652426,-0.5461450306,,,89.416872283912,0,0.1789552,0.57100723612,1.01485895636,13,0,32.4135,89.963017314512,0,0.223694,0.57100723612,0,0,0,120.7, 89.8, 22.3,0,0,1024,1024,1024,1024,0,0,0,0,0,0,0,100,4.048,4.046,4.046,4.047,0,0,0,85.55,89.416872283912,-0.5461450306,0,,
58590,2026-06-04 04:49:24,-2.0607584,105.1652425,-0.26874016608,,,89.694277148432,0,0.0447388,0.68541012692,1.13022641412,13,0,32.4135,89.963017314512,0,0.223694,0.68541012692,0,0,0,121.3, 89.8, 22.9,0,0,1024,1024,1024,1024,0,0,0,0,0,0,0,100,4.048,4.046,4.046,4.047,0,0,0,85.55,89.694277148432,-0.26874016608,0,,
58790,2026-06-04 04:49:24,-2.0607581,105.1652425,-1.09229990372,,,88.870717410792,0,0.0894776,0.78583992016,1.2396817982,13,0,32.4222,89.963017314512,0,0.223694,0.78583992016,0,0,0,121.6, 89.8, 23.2,0,0,1024,1024,1024,1024,0,0,0,0,0,0,0,100,4.048,4.046,4.046,4.047,0,0,0,85.55,88.870717410792,-1.09229990372,0,,
58990,2026-06-04 04:49:24,-2.060758,105.1652425,-1.09229990372,,,88.870717410792,0,0.0223694,0.81982942256,1.276164739,14,0,32.4222,89.963017314512,0,0.223694,0.81982942256,0,0,0,122, 89.8, 23.7,0,0,1024,1024,1024,1024,0,0,0,0,0,0,0,100,4.048,4.046,4.046,4.047,0,0,0,85.55,88.870717410792,-1.09229990372,0,,
59190,2026-06-04 04:49:24,-2.0607578,105.1652424,0,,,89.963017314512,0,0.111847,0.9010334934,1.35773954476,17,0,32.4222,89.963017314512,0,0.223694,0.9010334934,0,0,0,122.1, 89.8, 23.9,0,0,1024,1024,1024,1024,0,0,0,0,0,0,0,100,4.048,4.046,4.046,4.047,0,0,0,85.55,89.963017314512,0,0,,
59390,2026-06-04 04:49:25,-2.0607577,105.1652424,-0.81488847752,,,89.148128836992,0,0.111847,0.93510829764,1.39422248556,17,0,32.4222,89.963017314512,0,0.223694,0.93510829764,0,0,0,120.8, 89.8, 22.4,0,0,1024,1024,1024,1024,0,0,0,0,0,0,0,100,4.048,4.046,4.046,4.047,0,0,0,85.55,89.148128836992,-0.81488847752,0,,
59590,2026-06-04 04:49:25,-2.0607576,105.1652423,-1.36970476824,,,88.593312546272,0,0.0447388,0.9822999002,1.44580385204,17,0,32.4222,89.963017314512,0,0.223694,0.9822999002,0,0,0,120.8, 89.8, 22.5,0,0,1024,1024,1024,1024,0,0,0,0,0,0,0,100,4.048,4.046,4.046,4.047,0,0,0,85.55,88.593312546272,-1.36970476824,0,,
59790,2026-06-04 04:49:25,-2.0607574,105.1652422,-1.91585636052,,,88.047160953992,0,0.0223694,1.06361223876,1.52737537696,17,0,32.4054,89.963017314512,0,0.223694,1.06361223876,0,0,0,120.8, 89.8, 22.4,0,0,1024,1024,1024,1024,0,0,0,0,0,0,0,100,4.048,4.046,4.046,4.047,0,0,0,85.55,88.047160953992,-1.91585636052,0,,
59990,2026-06-04 04:49:25,-2.0607573,105.1652421,-0.8582349356,,,89.104782378912,0,0.0894776,1.11133205656,1.57895674344,17,0,32.4054,89.963017314512,0,0.223694,1.11133205656,0,0,0,121, 89.8, 22.5,0,0,1024,1024,1024,1024,0,0,0,0,0,0,0,100,4.048,4.046,4.046,4.047,0,0,0,85.55,89.104782378912,-0.8582349356,0,,
60190,2026-06-04 04:49:25,-2.0607571,105.165242,-0.8582349356,,,89.104782378912,0,0.1342164,1.19277234788,1.66052826836,17,0,32.4054,89.963017314512,0,0.223694,1.19277234788,0,0,0,122.6, 89.8, 24,0,0,1024,1024,1024,1024,0,0,0,0,0,0,0,100,4.048,4.046,4.046,4.047,0,0,0,85.55,89.104782378912,-0.8582349356,0,,
60390,2026-06-04 04:49:26,-2.0607571,105.165242,-0.65884844628,,,89.304168868232,0,0.0671082,1.19277234788,1.66052826836,17,0,32.4054,89.963017314512,0,0.223694,1.19277234788,0,0,0,122.9, 89.8, 24.3,0,0,1024,1024,1024,1024,0,0,0,0,0,0,0,100,4.048,4.046,4.046,4.047,0,0,0,85.55,89.304168868232,-0.65884844628,0,,
60590,2026-06-04 04:49:26,-2.0607569,105.1652419,-0.9362533108,,,89.026764003712,0,0.1342164,1.27423232424,1.74210307412,17,0,32.4054,89.963017314512,0,0.223694,1.27423232424,0,0,0,122.9, 89.8, 24.2,0,0,1024,1024,1024,1024,0,0,0,0,0,0,0,100,4.048,4.046,4.046,4.047,0,0,0,85.55,89.026764003712,-0.9362533108,0,,
60790,2026-06-04 04:49:26,-2.0607569,105.1652417,-0.46812993624,,,89.494887378272,0,0.0223694,1.30515752208,1.81502302396,17,0,32.4321,89.963017314512,0,0.223694,1.30515752208,0,0,0,123.5, 89.8, 24.8,0,0,1024,1024,1024,1024,0,0,0,0,0,0,0,100,4.048,4.046,4.046,4.047,0,0,0,85.55,89.494887378272,-0.46812993624,0,,
60990,2026-06-04 04:49:26,-2.0607568,105.1652416,-0.46812993624,,,89.494887378272,0,0.0671082,1.35418967588,1.86660439044,17,0,32.4321,89.963017314512,0,0.223694,1.35418967588,0,0,0,123.6, 89.8, 24.9,0,0,1024,1024,1024,1024,0,0,0,0,0,0,0,100,4.048,4.046,4.046,4.047,0,0,0,85.55,89.494887378272,-0.46812993624,0,,
61190,2026-06-04 04:49:26,-2.0607567,105.1652415,-0.7368602598,,,89.226157054712,0,0.0671082,1.40340555672,1.91818575692,17,0,32.4321,89.963017314512,0,0.223694,1.40340555672,0,0,0,123.5, 89.8, 24.8,0,0,1024,1024,1024,1024,0,0,0,0,0,0,0,100,4.048,4.046,4.046,4.047,0,0,0,85.55,89.226157054712,-0.7368602598,0,,
61390,2026-06-04 04:49:27,-2.0607566,105.1652415,-0.39010499936,,,89.572912315152,0,0.0447388,1.43575463912,1.95467197856,17,0,32.4321,89.963017314512,0,0.223694,1.43575463912,0,0,0,123.7, 89.8, 25,0,0,1024,1024,1024,1024,0,0,0,0,0,0,0,100,4.048,4.046,4.046,4.047,0,0,0,85.55,89.572912315152,-0.39010499936,0,,
61590,2026-06-04 04:49:27,-2.0607565,105.1652414,-1.09229990372,,,88.870717410792,0,0.0447388,1.4849573966,2.0062500642,17,0,32.4321,89.963017314512,0,0.223694,1.4849573966,0,0,0,124.2, 89.8, 25.5,0,0,1024,1024,1024,1024,0,0,0,0,0,0,0,100,4.048,4.046,4.046,4.047,0,0,0,85.55,88.870717410792,-1.09229990372,0,,
61790,2026-06-04 04:49:27,-2.0607564,105.1652414,-0.81488847752,,,89.148128836992,0,0.0894776,1.5173228832,2.04273628584,17,0,32.4049,89.963017314512,0,0.223694,1.5173228832,0,0,0,124.4, 89.8, 25.7,0,0,1024,1024,1024,1024,0,0,0,0,0,0,0,100,4.048,4.046,4.046,4.047,0,0,0,85.55,89.148128836992,-0.81488847752,0,,
61990,2026-06-04 04:49:27,-2.0607564,105.1652414,-1.09229990372,,,88.870717410792,0,0.1565858,1.5173228832,2.04273628584,17,0,32.4049,89.963017314512,0,0.223694,1.5173228832,0,0,0,124.4, 89.8, 25.7,0,0,1024,1024,1024,1024,0,0,0,0,0,0,0,100,4.048,4.046,4.046,4.047,0,0,0,85.55,88.870717410792,-1.09229990372,0,,
62190,2026-06-04 04:49:27,-2.0607563,105.1652413,0.2774114262,,,90.240428740712,0,0.1789552,1.56650923648,2.09431765232,17,0,32.4049,90.240428740712,0.2774114262,0.223694,1.56650923648,0,0,0,123.4, 89.8, 24.8,0,0,1024,1024,1024,1024,0,0,0,0,0,0,0,100,4.048,4.046,4.046,4.047,0,0,0,85.55,90.240428740712,0.2774114262,0,,
62390,2026-06-04 04:49:28,-2.0607563,105.1652413,-1.91585636052,,,88.047160953992,0,0.1789552,1.56650923648,2.09431765232,17,0,32.4049,90.240428740712,0.2774114262,0.223694,1.56650923648,0,0,0,123.2, 89.8, 24.6,0,0,1024,1024,1024,1024,0,0,0,0,0,0,0,100,4.048,4.046,4.046,4.047,0,0,0,85.55,88.047160953992,-1.91585636052,0,,
62590,2026-06-04 04:49:28,-2.0607562,105.1652412,-0.26874016608,,,89.694277148432,0,0.0223694,1.6158465084,2.1458990188,17,0,32.4049,90.240428740712,0.2774114262,0.223694,1.6158465084,0,0,0,122.5, 89.8, 23.9,0,0,1024,1024,1024,1024,0,0,0,0,0,0,0,100,4.048,4.046,4.046,4.047,0,0,0,85.55,89.694277148432,-0.26874016608,0,,
62780,2026-06-04 04:49:28,-2.0607562,105.1652412,0.55481629072,,,90.517833605232,0,0.0447388,1.6158465084,2.1458990188,17,0,32.4313,90.517833605232,0.55481629072,0.223694,1.6158465084,0,0,0,120.6, 89.8, 22,0,0,1024,1024,1024,1024,0,0,0,0,0,0,0,100,4.048,4.046,4.046,4.047,0,0,0,85.55,90.517833605232,0.55481629072,0,,"[ekf2] starting GPS fusion"
62990,2026-06-04 04:49:28,-2.0607562,105.1652412,-1.63844821516,,,88.324569099352,0,0.0447388,1.6158465084,2.1458990188,17,0,32.4313,90.517833605232,0.55481629072,0.223694,1.6158465084,0,0,0,118.6, 89.8, 20,0,0,1024,1024,1024,1024,0,0,0,0,0,0,0,100,4.048,4.046,4.046,4.047,0,0,0,85.55,88.324569099352,-1.63844821516,0,,
63190,2026-06-04 04:49:28,-2.0607561,105.1652411,-1.09229990372,,,88.870717410792,0,0.1565858,1.66531829476,2.19748038528,17,0,32.4313,90.517833605232,0.55481629072,0.223694,1.66531829476,0,0,0,117.7, 89.8, 19.2,0,0,1024,1024,1024,1024,0,0,0,0,0,0,0,100,4.048,4.046,4.046,4.047,0,0,0,85.55,88.870717410792,-1.09229990372,0,,
63390,2026-06-04 04:49:29,-2.0607561,105.1652411,-1.09229990372,,,88.870717410792,0,0.1342164,1.66531829476,2.19748038528,17,0,32.4313,90.517833605232,0.55481629072,0.223694,1.66531829476,0,0,0,117.7, 89.8, 19.2,0,0,1024,1024,1024,1024,0,0,0,0,0,0,0,100,4.048,4.046,4.046,4.047,0,0,0,85.55,88.870717410792,-1.09229990372,0,,
63590,2026-06-04 04:49:29,-2.0607561,105.165241,-0.5461450306,,,89.416872283912,0,0.0894776,1.6831857494,2.2339403602,17,0,32.4313,90.517833605232,0.55481629072,0.223694,1.6831857494,0,0,0,121.4, 89.8, 22.9,0,0,1024,1024,1024,1024,0,0,0,0,0,0,0,100,4.048,4.046,4.046,4.047,0,0,0,85.55,89.416872283912,-0.5461450306,0,,
63790,2026-06-04 04:49:29,-2.0607559,105.165241,-0.5461450306,,,89.416872283912,0,0.111847,1.74683076456,2.30690952264,17,0,32.4139,90.517833605232,0.55481629072,0.223694,1.74683076456,0,0,0,121.1, 89.8, 22.5,0,0,1024,1024,1024,1024,0,0,0,0,0,0,0,100,4.048,4.046,4.046,4.047,0,0,0,85.55,89.416872283912,-0.5461450306,0,,
63990,2026-06-04 04:49:29,-2.0607559,105.165241,-0.26874016608,,,89.694277148432,0,0.0447388,1.74683076456,2.30690952264,17,0,32.4139,90.517833605232,0.55481629072,0.223694,1.74683076456,0,0,0,120, 89.8, 21.4,0,0,1024,1024,1024,1024,0,0,0,0,0,0,0,100,4.048,4.046,4.046,4.047,0,0,0,85.55,89.694277148432,-0.26874016608,0,,
64190,2026-06-04 04:49:29,-2.0607559,105.1652409,0,,,89.963017314512,0,0.0894776,1.76462604072,2.3433727784,17,0,32.4139,90.517833605232,0.55481629072,0.223694,1.76462604072,0,0,0,118.3, 89.8, 19.8,0,0,1024,1024,1024,1024,0,0,0,0,0,0,0,100,4.048,4.046,4.046,4.047,0,0,0,85.55,89.963017314512,0,0,,
64390,2026-06-04 04:49:30,-2.0607558,105.1652409,0.82355973764,,,90.786577052152,0,0.0447388,1.79639769528,2.3798557192,17,0,32.4139,90.786577052152,0.82355973764,0.223694,1.79639769528,0,0,0,116, 89.8, 17.6,0,0,1024,1024,1024,1024,0,0,0,0,0,0,0,100,4.048,4.046,4.046,4.047,0,0,0,85.55,90.786577052152,0.82355973764,0,,
64590,2026-06-04 04:49:30,-2.0607558,105.1652408,-0.26874016608,,,89.694277148432,0,0.1342164,1.81443903444,2.41631897496,17,0,32.4139,90.786577052152,0.82355973764,0.223694,1.81443903444,0,0,0,115.1, 89.8, 16.6,0,0,1024,1024,1024,1024,0,0,0,0,0,0,0,100,4.048,4.046,4.046,4.047,0,0,0,85.55,89.694277148432,-0.26874016608,0,,
64780,2026-06-04 04:49:30,-2.0607557,105.1652407,-0.5461450306,,,89.416872283912,0,0.0894776,1.86435045336,2.4678970606,17,0,32.4051,90.786577052152,0.82355973764,0.223694,1.86435045336,0,0,0,110.5, 89.8, 12.1,0,0,1024,1024,1024,1024,0,0,0,0,0,0,0,100,4.048,4.045,4.046,4.047,0,0,0,85.55,89.416872283912,-0.5461450306,0,,
64990,2026-06-04 04:49:30,-2.0607557,105.1652407,-0.81488847752,,,89.148128836992,0,0.0223694,1.86435045336,2.4678970606,19,0,32.4051,90.786577052152,0.82355973764,0.223694,1.86435045336,0,0,0,107.5, 89.8, 9.1,0,0,1024,1024,1024,1024,0,0,0,0,0,0,0,100,4.048,4.045,4.046,4.047,0,0,0,85.55,89.148128836992,-0.81488847752,0,,
65190,2026-06-04 04:49:30,-2.0607558,105.1652407,0,,,89.963017314512,0,0.0447388,1.83302827388,2.50438328224,19,0,32.4051,90.786577052152,0.82355973764,0.223694,1.86435045336,0,0,0,109.1, 89.8, 10.7,0,0,1024,1024,1024,1024,0,0,0,0,0,0,0,100,4.048,4.045,4.046,4.047,0,0,0,85.55,89.963017314512,0,0,,
65390,2026-06-04 04:49:31,-2.0607558,105.1652406,-1.09229990372,,,88.870717410792,0,0.0894776,1.8521490094,2.54084325716,19,0,32.4051,90.786577052152,0.82355973764,0.223694,1.86435045336,0,0,0,112.1, 89.8, 13.6,0,0,1024,1024,1024,1024,0,0,0,0,0,0,0,100,4.048,4.045,4.046,4.047,0,0,0,85.55,88.870717410792,-1.09229990372,0,,
65590,2026-06-04 04:49:31,-2.0607559,105.1652406,0.55481629072,,,90.517833605232,0,0.0894776,1.82134848348,2.5773294788,19,0,32.4051,90.786577052152,0.82355973764,0.223694,1.86435045336,0,0,0,109, 89.8, 10.6,0,0,1024,1024,1024,1024,0,0,0,0,0,0,0,100,4.048,4.045,4.046,4.047,0,0,0,85.55,90.517833605232,0.55481629072,0,,"[wdeb_node_base] FMU: CCU: @0x00049F5D1C18A638: Disabled VBUS"
65790,2026-06-04 04:49:31,-2.0607559,105.1652405,0,,,89.963017314512,0,0.1789552,1.84130911404,2.61378945372,19,0,32.4313,90.786577052152,0.82355973764,0.223694,1.86435045336,0,0,0,106.3, 89.8, 7.8,0,0,1024,1024,1024,1024,0,0,0,0,0,0,0,100,4.048,4.046,4.046,4.047,0,0,0,85.55,89.963017314512,0,0,,
65990,2026-06-04 04:49:31,-2.0607559,105.1652405,-0.81488847752,,,89.148128836992,0,0.223694,1.84130911404,2.61378945372,19,0,32.4313,90.786577052152,0.82355973764,0.223694,1.86435045336,0,0,0,103.6, 89.8, 5.1,0,0,1024,1024,1024,1024,0,0,0,0,0,0,0,100,4.048,4.046,4.046,4.047,0,0,0,85.55,89.148128836992,-0.81488847752,0,,
66190,2026-06-04 04:49:31,-2.0607559,105.1652405,-0.81488847752,,,89.148128836992,0,0.0223694,1.84130911404,2.61378945372,19,0,32.4313,90.786577052152,0.82355973764,0.223694,1.86435045336,0,0,0,103.1, 89.8, 4.6,0,0,1024,1024,1024,1024,0,0,0,0,0,0,0,100,4.048,4.046,4.046,4.047,0,0,0,85.55,89.148128836992,-0.81488847752,0,,
66390,2026-06-04 04:49:32,-2.0607559,105.1652404,-1.09229990372,,,88.870717410792,0,0.0894776,1.86177499396,2.65025270948,19,0,32.4313,90.786577052152,0.82355973764,0.223694,1.86435045336,0,0,0,102.9, 89.7, 4.4,0,0,1024,1024,1024,1024,0,0,0,0,0,0,0,100,4.048,4.046,4.046,4.047,0,0,0,85.55,88.870717410792,-1.09229990372,0,,
66590,2026-06-04 04:49:32,-2.0607559,105.1652404,-1.09229990372,,,88.870717410792,0,0.0223694,1.86177499396,2.65025270948,19,0,32.4313,90.786577052152,0.82355973764,0.223694,1.86435045336,0,0,0,102.8, 89.7, 4.3,0,0,1024,1024,1024,1024,0,0,0,0,0,0,0,100,4.048,4.046,4.046,4.047,0,0,0,85.55,88.870717410792,-1.09229990372,0,,
66790,2026-06-04 04:49:32,-2.0607559,105.1652404,-1.09229990372,,,88.870717410792,0,0.0223694,1.86177499396,2.65025270948,19,0,32.4226,90.786577052152,0.82355973764,0.223694,1.86435045336,0,0,0,103, 89.7, 4.5,0,0,1024,1024,1024,1024,0,0,0,0,0,0,0,100,4.048,4.045,4.046,4.046,0,0,0,85.55,88.870717410792,-1.09229990372,0,,
66990,2026-06-04 04:49:32,-2.060756,105.1652404,-1.09229990372,,,88.870717410792,0,0,1.83186029484,2.68673893112,19,0,32.4226,90.786577052152,0.82355973764,0.223694,1.86435045336,0,0,0,104.2, 89.8, 5.7,0,0,1024,1024,1024,1024,0,0,0,0,0,0,0,100,4.048,4.045,4.046,4.046,0,0,0,85.55,88.870717410792,-1.09229990372,0,,
67190,2026-06-04 04:49:32,-2.060756,105.1652403,-0.81488847752,,,89.148128836992,0,0.0671082,1.85314638476,2.72319890604,19,0,32.4226,90.786577052152,0.82355973764,0.223694,1.86435045336,0,0,0,104.7, 89.8, 6.1,0,0,1024,1024,1024,1024,0,0,0,0,0,0,0,100,4.048,4.045,4.046,4.046,0,0,0,85.55,89.148128836992,-0.81488847752,0,,
67390,2026-06-04 04:49:33,-2.060756,105.1652403,-2.46200467196,,,87.501012642552,0,0.0447388,1.85314638476,2.72319890604,19,0,32.4226,90.786577052152,0.82355973764,0.223694,1.86435045336,0,0,0,108.7, 89.8, 10.2,0,0,1024,1024,1024,1024,0,0,0,0,0,0,0,100,4.048,4.045,4.046,4.046,0,0,0,85.55,87.501012642552,-2.46200467196,0,,
67590,2026-06-04 04:49:33,-2.0607561,105.1652402,-1.36970476824,,,88.593312546272,0,0.0447388,1.84592197508,2.77478027252,19,0,32.4226,90.786577052152,0.82355973764,0.223694,1.86435045336,0,0,0,108.7, 89.8, 10.2,0,0,1024,1024,1024,1024,0,0,0,0,0,0,0,100,4.048,4.045,4.046,4.046,0,0,0,85.55,88.593312546272,-1.36970476824,0,,
67780,2026-06-04 04:49:33,-2.0607561,105.1652402,-1.09229990372,,,88.870717410792,0,0.0671082,1.84592197508,2.77478027252,19,0,32.4047,90.786577052152,0.82355973764,0.223694,1.86435045336,0,0,0,108.8, 89.8, 10.2,0,0,1024,1024,1024,1024,0,0,0,0,0,0,0,100,4.048,4.046,4.046,4.047,0,0,0,85.55,88.870717410792,-1.09229990372,0,,"[wdeb_node_base] FMU: CCU: @0x00049F5D1C39DA38: Trig cmd accepted: 0x0000"
67990,2026-06-04 04:49:33,-2.0607561,105.1652401,-1.91585636052,,,88.047160953992,0,0.0894776,1.86846790756,2.81124024744,19,0,32.4047,90.786577052152,0.82355973764,0.223694,1.86846790756,0,0,0,109.1, 89.8, 10.6,0,0,1024,1024,1024,1024,0,0,0,0,0,0,0,100,4.048,4.046,4.046,4.047,0,0,0,85.55,88.047160953992,-1.91585636052,0,,
68190,2026-06-04 04:49:33,-2.0607562,105.1652401,-2.7307415572,,,87.232275757312,0,0.0671082,1.84011160744,2.84772646908,19,0,32.4047,90.786577052152,0.82355973764,0.223694,1.86846790756,0,0,0,110.9, 89.8, 12.3,0,0,1024,1024,1024,1024,0,0,0,0,0,0,0,100,4.048,4.046,4.046,4.047,0,0,0,85.55,87.232275757312,-2.7307415572,0,,
68390,2026-06-04 04:49:34,-2.0607562,105.1652401,-2.46200467196,,,87.501012642552,0,0.0223694,1.84011160744,2.84772646908,19,0,32.4047,90.786577052152,0.82355973764,0.223694,1.86846790756,0,0,0,112.1, 89.8, 13.6,0,0,1024,1024,1024,1024,0,0,0,0,0,0,0,100,4.048,4.046,4.046,4.047,0,0,0,85.55,87.501012642552,-2.46200467196,0,,"[wdeb_node_base] FMU: CCU: @0x00049F5D1C42FE10: Trigger retry nr. 0x00"
68590,2026-06-04 04:49:34,-2.0607563,105.16524,-1.63844821516,,,88.324569099352,0,0.0447388,1.83573824772,2.89930783556,19,0,32.4047,90.786577052152,0.82355973764,0.223694,1.86846790756,0,0,0,111.5, 89.8, 13,0,0,1024,1024,1024,1024,0,0,0,0,0,0,0,100,4.048,4.046,4.046,4.047,0,0,0,85.55,88.324569099352,-1.63844821516,0,,
68780,2026-06-04 04:49:34,-2.0607564,105.1652399,-1.36970476824,,,88.593312546272,0,0.0447388,1.83280189592,2.9508859212,19,0,32.2805,90.786577052152,0.82355973764,0.223694,1.86846790756,0,0,0,111.5, 89.8, 13.1,0,0,1024,1024,1024,1024,0,0,0,0,0,0,0,100,4.047,4.045,4.045,4.046,0,0,0.001,85.55,88.593312546272,-1.36970476824,0,,
68990,2026-06-04 04:49:34,-2.0607564,105.16524,-1.09229990372,,,88.870717410792,0,0.1565858,1.80833995288,2.98734917696,19,0,32.2805,90.786577052152,0.82355973764,0.223694,1.86846790756,0,0,0,109, 89.8, 10.7,0,0,1024,1024,1024,1024,0,0,0,0,0,0,0,100,4.047,4.045,4.045,4.046,0,0,0.001,85.55,88.870717410792,-1.09229990372,0,,"[wdeb_node_base] FMU: CCU: @0x00049F5D1C4DAC70: Trigger retry nr. 0x01"
69190,2026-06-04 04:49:34,-2.0607564,105.1652399,-2.18458668408,,,87.778430630432,0,0.0894776,1.83280189592,3.02380915188,19,0,32.2805,90.786577052152,0.82355973764,0.223694,1.86846790756,0,0,0,108.8, 89.8, 10.4,0,0,1024,1024,1024,1024,0,0,0,0,0,0,0,100,4.047,4.045,4.045,4.046,0,0,0.001,85.55,87.778430630432,-2.18458668408,0,,
69390,2026-06-04 04:49:35,-2.0607565,105.1652399,-1.63844821516,,,88.324569099352,0,0.0447388,1.80609913916,3.06029537352,19,0,32.2805,90.786577052152,0.82355973764,0.223694,1.86846790756,0,0,0,113.6, 89.8, 15.1,0,0,1024,1024,1024,1024,0,0,0,0,0,0,0,100,4.047,4.045,4.045,4.046,0,0,0.001,85.55,88.324569099352,-1.63844821516,0,,
69590,2026-06-04 04:49:35,-2.0607565,105.1652397,-1.63844821516,,,88.324569099352,0,0.0671082,1.85690950824,3.1332186042,19,0,32.2805,90.786577052152,0.82355973764,0.223694,1.86846790756,0,0,0,115.6, 89.8, 17.2,0,0,1024,1024,1024,1024,0,0,0,0,0,0,0,100,4.047,4.045,4.045,4.046,0,0,0.001,85.55,88.324569099352,-1.63844821516,0,,
69780,2026-06-04 04:49:35,-2.0607566,105.1652397,-2.18458668408,,,87.778430630432,0,0.0447388,1.831282867,3.169701545,19,0,32.2813,90.786577052152,0.82355973764,0.223694,1.86846790756,0,0,0,117.3, 89.8, 18.9,0,0,1024,1024,1024,1024,0,0,0,0,0,0,0,100,4.047,4.045,4.045,4.046,0,0,0.001,85.55,87.778430630432,-2.18458668408,0,,"[wdeb_node_base] FMU: CCU: @0x00049F5D1C585AD0: Trigger retry nr. 0x02"
69990,2026-06-04 04:49:35,-2.0607567,105.1652396,-2.18458668408,,,87.778430630432,0,0.111847,1.83270347072,3.22128291148,19,0,32.2813,90.786577052152,0.82355973764,0.223694,1.86846790756,0,0,0,117.8, 89.8, 19.4,0,0,1024,1024,1024,1024,0,0,0,0,0,0,0,100,4.047,4.045,4.045,4.046,0,0,0.001,85.55,87.778430630432,-2.18458668408,0,,
70190,2026-06-04 04:49:35,-2.0607568,105.1652395,-0.81488847752,,,89.148128836992,0,0.111847,1.83557092488,3.27286427796,19,0,32.2813,90.786577052152,0.82355973764,0.223694,1.86846790756,0,0,0,123.7, 89.9, 25.3,0,0,1024,1024,1024,1024,0,0,0,0,0,0,0,100,4.047,4.045,4.045,4.046,0,0,0.001,85.55,89.148128836992,-0.81488847752,0,,
70390,2026-06-04 04:49:36,-2.0607568,105.1652395,-1.91585636052,,,88.047160953992,0,0.111847,1.83557092488,3.27286427796,19,0,32.2813,90.786577052152,0.82355973764,0.223694,1.86846790756,0,0,0,122.6, 89.9, 24.1,0,0,1024,1024,1024,1024,0,0,0,0,0,0,0,100,4.047,4.045,4.045,4.046,0,0,0.001,85.55,88.047160953992,-1.91585636052,0,,"[wdeb_node_base] FMU: CCU: @0x00049F5D1C630930: Trigger retry nr. 0x03"
70590,2026-06-04 04:49:36,-2.060757,105.1652394,-2.46200467196,,,87.501012642552,0,0.1342164,1.81694887704,3.3544292412,19,0,32.2813,90.786577052152,0.82355973764,0.223694,1.86846790756,0,0,0,123.4, 89.9, 25,0,0,1024,1024,1024,1024,0,0,0,0,0,0,0,100,4.047,4.045,4.045,4.046,0,0,0.001,85.55,87.501012642552,-2.46200467196,0,,
70780,2026-06-04 04:49:36,-2.0607571,105.1652393,-0.26874016608,,,89.694277148432,0,0.0447388,1.823490872,3.406004046,19,0,32.3961,90.786577052152,0.82355973764,0.223694,1.86846790756,0,0,0,122.2, 89.9, 23.8,0,0,1024,1024,1024,1024,0,0,0,0,0,0,0,100,4.047,4.045,4.045,4.046,0,0,0.001,85.55,89.694277148432,-0.26874016608,0,,
70990,2026-06-04 04:49:36,-2.0607572,105.1652393,-1.91585636052,,,88.047160953992,0,0.0671082,1.80182748548,3.4424869868,19,0,32.3961,90.786577052152,0.82355973764,0.223694,1.86846790756,0,0,0,120.5, 89.8, 22.1,0,0,1024,1024,1024,1024,0,0,0,0,0,0,0,100,4.047,4.045,4.045,4.046,0,0,0.001,85.55,88.047160953992,-1.91585636052,0,,
71190,2026-06-04 04:49:36,-2.0607573,105.1652392,-1.91585636052,,,88.047160953992,0,0.0223694,1.81063326004,3.4940946,19,0,32.3961,90.786577052152,0.82355973764,0.223694,1.86846790756,0,0,0,121.9, 89.9, 23.5,0,0,1024,1024,1024,1024,0,0,0,0,0,0,0,100,4.047,4.045,4.045,4.046,0,0,0.001,85.55,88.047160953992,-1.91585636052,0,,"[wdeb_node_base] FMU: CCU: @0x00049F5D1C6FA7A8: Trig cmd accepted: 0x0001"
71410,2026-06-04 04:49:37,-2.0607574,105.1652392,-2.18458668408,,,87.778430630432,0,0.0223694,1.79030189456,3.5305775408,19,0,32.3961,90.786577052152,0.82355973764,0.223694,1.86846790756,0,0,0,121.5, 89.9, 23.2,1,0,1024,1024,1024,1024,0,0,0,0,0,0,0,100,4.047,4.045,4.045,4.046,0,0,0.001,85.55,87.778430630432,-2.18458668408,0,,"[wdeb_node_base] FMU: CCU: @0x00049F5D1C70BD00: Capture detected: 0x0001"
71600,2026-06-04 04:49:37,-2.0607574,105.1652391,-2.46200467196,,,87.501012642552,0,0.0894776,1.82085635748,3.5670276732,19,0,32.3961,90.786577052152,0.82355973764,0.223694,1.86846790756,0,0,0,120.9, 89.9, 22.6,0,0,1024,1024,1024,1024,0,0,0,0,0,0,0,100,4.047,4.045,4.045,4.046,0,0,0.001,85.55,87.501012642552,-2.46200467196,0,,
71790,2026-06-04 04:49:37,-2.0607575,105.165239,-0.26874016608,,,89.694277148432,0,0.1342164,1.83247709276,3.618602478,19,0,32.3877,90.786577052152,0.82355973764,0.223694,1.86846790756,0,0,0,121.5, 89.9, 23.1,0,0,1024,1024,1024,1024,0,0,0,0,0,0,0,100,4.047,4.045,4.045,4.047,0,0,0.001,85.55,89.694277148432,-0.26874016608,0,,
71990,2026-06-04 04:49:37,-2.0607576,105.1652389,-1.09229990372,,,88.870717410792,0,0.111847,1.84546593832,3.6701772828,19,0,32.3877,90.786577052152,0.82355973764,0.223694,1.86846790756,0,0,0,123.8, 89.9, 25.4,0,0,1024,1024,1024,1024,0,0,0,0,0,0,0,100,4.047,4.045,4.045,4.047,0,0,0.001,85.55,88.870717410792,-1.09229990372,0,,
72190,2026-06-04 04:49:37,-2.0607577,105.1652388,-2.18458668408,,,87.778430630432,0,0.0671082,1.85979664744,3.721784896,19,0,32.3877,90.786577052152,0.82355973764,0.223694,1.86846790756,0,0,0,124, 89.9, 25.6,0,0,1024,1024,1024,1024,0,0,0,0,0,0,0,100,4.047,4.045,4.045,4.047,0,0,0.001,85.55,87.778430630432,-2.18458668408,0,,
72390,2026-06-04 04:49:38,-2.0607578,105.1652388,-2.7307415572,,,87.232275757312,0,0.0447388,1.8428970406,3.7582678368,19,0,32.3877,90.786577052152,0.82355973764,0.223694,1.86846790756,0,0,0,125.9, 89.9, 27.6,0,0,1024,1024,1024,1024,0,0,0,0,0,0,0,100,4.047,4.045,4.045,4.047,0,0,0.001,85.55,87.232275757312,-2.7307415572,0,,
72590,2026-06-04 04:49:38,-2.0607579,105.1652387,-2.18458668408,,,87.778430630432,0,0,1.85939638496,3.8098426416,19,0,32.3877,90.786577052152,0.82355973764,0.223694,1.86846790756,0,0,0,124.3, 89.9, 25.9,0,0,1024,1024,1024,1024,0,0,0,0,0,0,0,100,4.047,4.045,4.045,4.047,0,0,0.001,85.55,87.778430630432,-2.18458668408,0,,
72790,2026-06-04 04:49:38,-2.060758,105.1652385,-1.91585636052,,,88.047160953992,0,0.0223694,1.91050859132,3.8913715156,19,0,32.4053,90.786577052152,0.82355973764,0.223694,1.91050859132,0,0,0,125.2, 89.9, 26.8,0,0,1024,1024,1024,1024,0,0,0,0,0,0,0,100,4.047,4.045,4.045,4.047,0,0,0.001,85.55,88.047160953992,-1.91585636052,0,,
72980,2026-06-04 04:49:38,-2.0607581,105.1652385,-1.63844821516,,,88.324569099352,0,0.111847,1.89617132052,3.9278544564,19,0,32.4053,90.786577052152,0.82355973764,0.223694,1.91050859132,0,0,0,124.9, 89.8, 26.5,0,0,1024,1024,1024,1024,0,0,0,0,0,0,0,100,4.047,4.045,4.045,4.047,0,0,0.001,85.55,88.324569099352,-1.63844821516,0,,
73170,2026-06-04 04:49:38,-2.0607582,105.1652385,-1.63844821516,,,88.324569099352,0,0.111847,1.8824311626,3.9643373972,19,0,32.4053,90.786577052152,0.82355973764,0.223694,1.91050859132,0,0,0,125.8, 89.9, 27.4,0,0,1024,1024,1024,1024,0,0,0,0,0,0,0,100,4.047,4.045,4.045,4.047,0,0,0.001,85.55,88.324569099352,-1.63844821516,0,,
73380,2026-06-04 04:49:39,-2.0607583,105.1652385,-0.5461450306,,,89.416872283912,0,0.111847,1.86930452176,4.000820338,19,0,32.4053,90.786577052152,0.82355973764,0.223694,1.91050859132,0,0,0,128.8, 89.9, 30.4,0,0,1024,1024,1024,1024,0,0,0,0,0,0,0,100,4.047,4.045,4.045,4.047,0,0,0.001,85.55,89.416872283912,-0.5461450306,0,,"[wdeb_node_base] FMU: CCU: @0x00049F5D1C914CF0: Camera focus"
73580,2026-06-04 04:49:39,-2.0607585,105.1652384,0,,,89.963017314512,0,0.0894776,1.87955714676,4.0824148288,19,0,32.4053,90.786577052152,0.82355973764,0.223694,1.91050859132,0,0,0,127.4, 89.9, 29,0,0,1024,1024,1024,1024,0,0,0,0,0,0,0,100,4.047,4.045,4.045,4.047,0,0,0.001,85.55,89.963017314512,0,0,,
73780,2026-06-04 04:49:39,-2.0607585,105.1652384,-1.63844821516,,,88.324569099352,0,0.0894776,1.87955714676,4.0824148288,19,0,32.4049,90.786577052152,0.82355973764,0.223694,1.91050859132,0,0,0,126.3, 89.8, 28,0,0,1024,1024,1024,1024,0,0,0,0,0,0,0,100,4.047,4.045,4.045,4.047,0,0,0.001,85.55,88.324569099352,-1.63844821516,0,,
73980,2026-06-04 04:49:39,-2.0607587,105.1652383,-1.36970476824,,,88.593312546272,0,0.0223694,1.89327105796,4.1639765112,19,0,32.4049,90.786577052152,0.82355973764,0.223694,1.91050859132,0,0,0,125.2, 89.8, 26.9,0,0,1024,1024,1024,1024,0,0,0,0,0,0,0,100,4.047,4.045,4.045,4.047,0,0,0.001,85.55,88.593312546272,-1.36970476824,0,,
74180,2026-06-04 04:49:39,-2.0607589,105.1652382,-2.18458668408,,,87.778430630432,0,0.0447388,1.91037407688,4.2455381936,19,0,32.4049,90.786577052152,0.82355973764,0.223694,1.91050859132,0,0,0,124.4, 89.8, 26.1,0,0,1024,1024,1024,1024,0,0,0,0,0,0,0,100,4.047,4.045,4.045,4.047,0,0,0.001,85.55,87.778430630432,-2.18458668408,0,,
74380,2026-06-04 04:49:40,-2.060759,105.1652382,-1.63844821516,,,88.324569099352,0,0.0671082,1.9023458614,4.2820211344,19,0,32.4049,90.786577052152,0.82355973764,0.223694,1.91050859132,0,0,0,124.3, 89.8, 26,0,0,1024,1024,1024,1024,0,0,0,0,0,0,0,100,4.047,4.045,4.045,4.047,0,0,0.001,85.55,88.324569099352,-1.63844821516,0,,"[wdeb_node_base] FMU: CCU: @0x00049F5D1CA04110: Enabled VBUS"
74590,2026-06-04 04:49:40,-2.0607592,105.165238,-2.18458668408,,,87.778430630432,0,0.0447388,1.96015098136,4.3852035524,19,0,32.4049,90.786577052152,0.82355973764,0.223694,1.96015098136,0,0,0,125, 89.8, 26.7,0,0,1024,1024,1024,1024,0,0,0,0,0,0,0,100,4.047,4.045,4.045,4.047,0,0,0.001,85.55,87.778430630432,-2.18458668408,0,,
74790,2026-06-04 04:49:40,-2.0607592,105.165238,-1.09229990372,,,88.870717410792,0,0.0447388,1.96015098136,4.3852035524,19,0,32.4046,90.786577052152,0.82355973764,0.223694,1.96015098136,0,0,0,122.6, 89.8, 24.3,0,0,1024,1024,1024,1024,0,0,0,0,0,0,0,100,4.047,4.045,4.045,4.046,0,0,0.001,85.55,88.870717410792,-1.09229990372,0,,
74990,2026-06-04 04:49:40,-2.0607593,105.165238,-1.09229990372,,,88.870717410792,0,0.1342164,1.95437014128,4.4216864932,19,0,32.4046,90.786577052152,0.82355973764,0.223694,1.96015098136,0,0,0,123.2, 89.8, 24.9,0,0,1024,1024,1024,1024,0,0,0,0,0,0,0,100,4.047,4.045,4.045,4.046,0,0,0.001,85.55,88.870717410792,-1.09229990372,0,,
75190,2026-06-04 04:49:40,-2.0607596,105.165238,-2.7307415572,,,87.232275757312,0,0.0223694,1.9410433692,4.5311353156,19,0,32.4046,90.786577052152,0.82355973764,0.223694,1.96015098136,0,0,0,121.8, 89.8, 23.5,0,0,1024,1024,1024,1024,0,0,0,0,0,0,0,100,4.047,4.045,4.045,4.046,0,0,0.001,85.55,87.232275757312,-2.7307415572,0,,
75390,2026-06-04 04:49:41,-2.0607596,105.1652379,-1.63844821516,,,88.324569099352,0,0.0223694,1.9773458638,4.567585448,19,0,32.4046,90.786577052152,0.82355973764,0.223694,1.9773458638,0,0,0,122.3, 89.8, 23.9,0,0,1024,1024,1024,1024,0,0,0,0,0,0,0,100,4.047,4.045,4.045,4.046,0,0,0.001,85.55,88.324569099352,-1.63844821516,0,,
75590,2026-06-04 04:49:41,-2.0607598,105.1652378,-1.09229990372,,,88.870717410792,0,0.111847,2.00835964432,4.6491799388,19,0,32.4046,90.786577052152,0.82355973764,0.223694,2.00835964432,0,0,0,122.2, 89.8, 23.9,0,0,1024,1024,1024,1024,0,0,0,0,0,0,0,100,4.047,4.045,4.045,4.046,0,0,0.001,85.55,88.870717410792,-1.09229990372,0,,
75790,2026-06-04 04:49:41,-2.06076,105.1652378,-1.09229990372,,,88.870717410792,0,0.0671082,2.00570544476,4.7221458204,19,0,32.4227,90.786577052152,0.82355973764,0.223694,2.00835964432,0,0,0,121.5, 89.8, 23.2,0,0,1024,1024,1024,1024,0,0,0,0,0,0,0,100,4.048,4.045,4.046,4.046,0,0,0.001,85.55,88.870717410792,-1.09229990372,0,,
75990,2026-06-04 04:49:41,-2.0607601,105.1652377,-1.63844821516,,,88.324569099352,0,0.0447388,2.04183405484,4.7737206252,19,0,32.4227,90.786577052152,0.82355973764,0.223694,2.04183405484,0,0,0,121.2, 89.8, 22.9,0,0,1024,1024,1024,1024,0,0,0,0,0,0,0,100,4.048,4.045,4.046,4.046,0,0,0.001,85.55,88.324569099352,-1.63844821516,0,,
76190,2026-06-04 04:49:41,-2.0607602,105.1652377,0,,,89.963017314512,0,0.0894776,2.04216213884,4.810203566,19,0,32.4227,90.786577052152,0.82355973764,0.223694,2.04216213884,0,0,0,120.5, 89.8, 22.2,0,0,1024,1024,1024,1024,0,0,0,0,0,0,0,100,4.048,4.045,4.046,4.046,0,0,0.001,85.55,89.963017314512,0,0,,
76390,2026-06-04 04:49:42,-2.0607603,105.1652377,-2.18458668408,,,87.778430630432,0,0.0447388,2.04313982916,4.8466865068,19,0,32.4227,90.786577052152,0.82355973764,0.223694,2.04313982916,0,0,0,119.7, 89.8, 21.4,0,0,1024,1024,1024,1024,0,0,0,0,0,0,0,100,4.048,4.045,4.046,4.046,0,0,0.001,85.55,87.778430630432,-2.18458668408,0,,
76590,2026-06-04 04:49:42,-2.0607604,105.1652377,-1.36970476824,,,88.593312546272,0,0.111847,2.0447671258,4.8831694476,19,0,32.4227,90.786577052152,0.82355973764,0.223694,2.0447671258,0,0,0,117.5, 89.8, 19.2,0,0,1024,1024,1024,1024,0,0,0,0,0,0,0,100,4.048,4.045,4.046,4.046,0,0,0.001,85.55,88.593312546272,-1.36970476824,0,,
76790,2026-06-04 04:49:42,-2.0607605,105.1652377,-0.26874016608,,,89.694277148432,0,0.0894776,2.04704402876,4.9196523884,19,0,32.4136,90.786577052152,0.82355973764,0.223694,2.04704402876,0,0,0,113, 89.8, 14.7,0,0,1024,1024,1024,1024,0,0,0,0,0,0,0,100,4.048,4.045,4.047,4.046,0,0,0.001,85.55,89.694277148432,-0.26874016608,0,,
76990,2026-06-04 04:49:42,-2.0607606,105.1652377,-2.7307415572,,,87.232275757312,0,0.0671082,2.0499672572,4.9561353292,19,0,32.4136,90.786577052152,0.82355973764,0.223694,2.0499672572,0,0,0,113, 89.8, 14.7,0,0,1024,1024,1024,1024,0,0,0,0,0,0,0,100,4.048,4.045,4.047,4.046,0,0,0.001,85.55,87.232275757312,-2.7307415572,0,,
77190,2026-06-04 04:49:42,-2.0607607,105.1652376,-1.09229990372,,,88.870717410792,0,0,2.08979337396,5.007710134,19,0,32.4136,90.786577052152,0.82355973764,0.223694,2.08979337396,0,0,0,113.4, 89.8, 15.1,0,0,1024,1024,1024,1024,0,0,0,0,0,0,0,100,4.048,4.045,4.047,4.046,0,0,0.001,85.55,88.870717410792,-1.09229990372,0,,
77390,2026-06-04 04:49:43,-2.0607608,105.1652376,-1.63844821516,,,88.324569099352,0,0.0671082,2.0939305132,5.0442258832,19,0,32.4136,90.786577052152,0.82355973764,0.223694,2.0939305132,0,0,0,113.2, 89.8, 14.9,0,0,1024,1024,1024,1024,0,0,0,0,0,0,0,100,4.048,4.045,4.047,4.046,0,0,0.001,85.55,88.324569099352,-1.63844821516,0,,
77590,2026-06-04 04:49:43,-2.0607609,105.1652375,-1.4997375808,,,88.463279733712,0,0.111847,2.13480649876,5.095800688,19,0,32.4136,90.786577052152,0.82355973764,0.223694,2.13480649876,0,0,0,113, 89.8, 14.7,0,0,1024,1024,1024,1024,0,0,0,0,0,0,0,100,4.048,4.045,4.047,4.046,0,0,0.001,85.55,88.463279733712,-1.4997375808,0,,
77780,2026-06-04 04:49:43,-2.0607609,105.1652375,-1.09229990372,,,88.870717410792,0,0.111847,2.13480649876,5.095800688,19,0,32.4226,90.786577052152,0.82355973764,0.223694,2.13480649876,0,0,0,112.5, 89.8, 14.2,0,0,1024,1024,1024,1024,0,0,0,0,0,0,0,100,4.047,4.045,4.047,4.046,0,0,0.001,85.55,88.870717410792,-1.09229990372,0,,
77980,2026-06-04 04:49:43,-2.060761,105.1652375,-1.4563976844,,,88.506619630112,0,0.0447388,2.14009849368,5.1322836288,19,0,32.4226,90.786577052152,0.82355973764,0.223694,2.14009849368,0,0,0,112.3, 89.8, 14,0,0,1024,1024,1024,1024,0,0,0,0,0,0,0,100,4.047,4.045,4.047,4.046,0,0,0.001,85.55,88.506619630112,-1.4563976844,0,,
78190,2026-06-04 04:49:43,-2.0607611,105.1652374,-0.8668963532,,,89.096120961312,0,0.0894776,2.1819390462,5.1838584336,19,0,32.4226,90.786577052152,0.82355973764,0.223694,2.1819390462,0,0,0,110.3, 89.8, 12,0,0,1024,1024,1024,1024,0,0,0,0,0,0,0,100,4.047,4.045,4.047,4.046,0,0,0.001,85.55,89.096120961312,-0.8668963532,0,,
78390,2026-06-04 04:49:44,-2.0607611,105.1652373,-0.9969324466,,,88.966084867912,0,0.0223694,2.2178970526,5.220308566,19,0,32.4226,90.786577052152,0.82355973764,0.223694,2.2178970526,0,0,0,110, 89.8, 11.7,0,0,1024,1024,1024,1024,0,0,0,0,0,0,0,100,4.047,4.045,4.047,4.046,0,0,0.001,85.55,88.966084867912,-0.9969324466,0,,
78590,2026-06-04 04:49:44,-2.0607612,105.1652373,-0.6328412276,,,89.330176086912,0,0.0223694,2.22418970372,5.2567915068,19,0,32.4226,90.786577052152,0.82355973764,0.223694,2.22418970372,0,0,0,109.8, 89.8, 11.5,0,0,1024,1024,1024,1024,0,0,0,0,0,0,0,100,4.047,4.045,4.047,4.046,0,0,0.001,85.55,89.330176086912,-0.6328412276,0,,
78790,2026-06-04 04:49:44,-2.0607612,105.1652372,-0.6328412276,,,89.330176086912,0,0.0671082,2.26006240828,5.2932744476,19,0,32.4316,90.786577052152,0.82355973764,0.223694,2.26006240828,0,0,0,109.1, 89.8, 10.8,0,0,1024,1024,1024,1024,0,0,0,0,0,0,0,100,4.047,4.045,4.046,4.046,0,0,0.001,85.55,89.330176086912,-0.6328412276,0,,
78990,2026-06-04 04:49:44,-2.0607613,105.1652372,-1.2743438728,,,88.688673441712,0,0.1342164,2.26682421952,5.3297573884,19,0,32.4316,90.786577052152,0.82355973764,0.223694,2.26682421952,0,0,0,107.3, 89.8, 9.1,0,0,1024,1024,1024,1024,0,0,0,0,0,0,0,100,4.047,4.045,4.046,4.046,0,0,0.001,85.55,88.688673441712,-1.2743438728,0,,
79190,2026-06-04 04:49:44,-2.0607613,105.1652371,-1.13563980012,,,88.827377514392,0,0.0447388,2.30261162224,5.3662075208,19,0,32.4316,90.786577052152,0.82355973764,0.223694,2.30261162224,0,0,0,107.8, 89.8, 9.6,0,0,1024,1024,1024,1024,0,0,0,0,0,0,0,100,4.047,4.045,4.046,4.046,0,0,0.001,85.55,88.827377514392,-1.13563980012,0,,
79390,2026-06-04 04:49:45,-2.0607614,105.165237,-0.9535925502,,,89.009424764312,0,0.0671082,2.3455217286,5.4177823256,19,0,32.4316,90.786577052152,0.82355973764,0.223694,2.3455217286,0,0,0,107.8, 89.8, 9.6,0,0,1024,1024,1024,1024,0,0,0,0,0,0,0,100,4.047,4.045,4.046,4.046,0,0,0.001,85.55,89.009424764312,-0.9535925502,0,,
79590,2026-06-04 04:49:45,-2.0607614,105.1652369,-0.9535925502,,,89.009424764312,0,0.1342164,2.38124023368,5.4542652664,19,0,32.4316,90.786577052152,0.82355973764,0.223694,2.38124023368,0,0,0,105.8, 89.8, 7.6,0,0,1024,1024,1024,1024,0,0,0,0,0,0,0,100,4.047,4.045,4.046,4.046,0,0,0.001,85.55,89.009424764312,-0.9535925502,0,,
79790,2026-06-04 04:49:45,-2.0607615,105.1652368,-1.13563980012,,,88.827377514392,0,0.0671082,2.42440624556,5.5058400712,19,0,32.4226,90.786577052152,0.82355973764,0.223694,2.42440624556,0,0,0,105.1, 89.8, 6.9,0,0,1024,1024,1024,1024,0,0,0,0,0,0,0,100,4.048,4.045,4.045,4.046,0,0,0.001,85.55,88.827377514392,-1.13563980012,0,,
79990,2026-06-04 04:49:45,-2.0607615,105.1652368,-0.8668963532,,,89.096120961312,0,0.0223694,2.42440624556,5.5058400712,19,0,32.4226,90.786577052152,0.82355973764,0.223694,2.42440624556,0,0,0,105, 89.8, 6.8,0,0,1024,1024,1024,1024,0,0,0,0,0,0,0,100,4.048,4.045,4.045,4.046,0,0,0.001,85.55,89.096120961312,-0.8668963532,0,,
80190,2026-06-04 04:49:45,-2.0607616,105.1652367,-1.2743438728,,,88.688673441712,0,0.1342164,2.46789377976,5.557414876,19,0,32.4226,90.786577052152,0.82355973764,0.223694,2.46789377976,0,0,0,104.4, 89.8, 6.2,0,0,1024,1024,1024,1024,0,0,0,0,0,0,0,100,4.048,4.045,4.045,4.046,0,0,0.001,85.55,88.688673441712,-1.2743438728,0,,
80390,2026-06-04 04:49:46,-2.0607617,105.1652366,-0.77154201944,,,89.191475295072,0,0.1342164,2.51168971292,5.6089896808,19,0,32.4226,90.786577052152,0.82355973764,0.223694,2.51168971292,0,0,0,103.6, 89.8, 5.4,0,0,1024,1024,1024,1024,0,0,0,0,0,0,0,100,4.048,4.045,4.045,4.046,0,0,0.001,85.55,89.191475295072,-0.77154201944,0,,
80590,2026-06-04 04:49:46,-2.0607618,105.1652366,-0.72820212304,,,89.234815191472,0,0.0894776,2.52042002816,5.6454726216,19,0,32.4226,90.786577052152,0.82355973764,0.223694,2.52042002816,0,0,0,103.4, 89.8, 5.2,0,0,1024,1024,1024,1024,0,0,0,0,0,0,0,100,4.048,4.045,4.045,4.046,0,0,0.001,85.55,89.234815191472,-0.72820212304,0,,
80790,2026-06-04 04:49:46,-2.0607618,105.1652364,-0.6328412276,,,89.330176086912,0,0.111847,2.59116150024,5.7184056948,19,0,32.4137,90.786577052152,0.82355973764,0.223694,2.59116150024,0,0,0,102.8, 89.8, 4.6,0,0,1024,1024,1024,1024,0,0,0,0,0,0,0,100,4.048,4.046,4.045,4.046,0,0,0.001,85.55,89.330176086912,-0.6328412276,0,,
80990,2026-06-04 04:49:46,-2.0607618,105.1652364,-1.2743438728,,,88.688673441712,0,0.0447388,2.59116150024,5.7184056948,19,0,32.4137,90.786577052152,0.82355973764,0.223694,2.59116150024,0,0,0,102.8, 89.8, 4.6,0,0,1024,1024,1024,1024,0,0,0,0,0,0,0,100,4.048,4.046,4.045,4.046,0,0,0.001,85.55,88.688673441712,-1.2743438728,0,,
81190,2026-06-04 04:49:46,-2.0607619,105.1652362,-0.5461450306,,,89.416872283912,0,0.0671082,2.67075795948,5.7999345688,19,0,32.4137,90.786577052152,0.82355973764,0.223694,2.67075795948,0,0,0,102, 89.8, 3.8,0,0,1024,1024,1024,1024,0,0,0,0,0,0,0,100,4.048,4.046,4.045,4.046,0,0,0.001,85.55,89.416872283912,-0.5461450306,0,,
81390,2026-06-04 04:49:47,-2.0607619,105.1652362,-1.36970476824,,,88.593312546272,0,0.0671082,2.67075795948,5.7999345688,19,0,32.4137,90.786577052152,0.82355973764,0.223694,2.67075795948,0,0,0,101.5, 89.8, 3.3,0,0,1024,1024,1024,1024,0,0,0,0,0,0,0,100,4.048,4.046,4.045,4.046,0,0,0.001,85.55,88.593312546272,-1.36970476824,0,,
81590,2026-06-04 04:49:47,-2.060762,105.1652361,-1.63844821516,,,88.324569099352,0,0.111847,2.71520021812,5.8515093736,19,0,32.4137,90.786577052152,0.82355973764,0.223694,2.71520021812,0,0,0,101.5, 89.8, 3.4,0,0,1024,1024,1024,1024,0,0,0,0,0,0,0,100,4.048,4.046,4.045,4.046,0,0,0.001,85.55,88.324569099352,-1.63844821516,0,,
81790,2026-06-04 04:49:47,-2.060762,105.1652361,-0.81488847752,,,89.148128836992,0,0.0671082,2.71520021812,5.8515093736,19,0,32.4137,90.786577052152,0.82355973764,0.223694,2.71520021812,0,0,0,101.6, 89.8, 3.4,0,0,1024,1024,1024,1024,0,0,0,0,0,0,0,100,4.047,4.046,4.045,4.046,0,0,0.001,85.55,89.148128836992,-0.81488847752,0,,
81990,2026-06-04 04:49:47,-2.0607621,105.165236,0,,,89.963017314512,0,0.0671082,2.75988853976,5.9031169868,19,0,32.4137,90.786577052152,0.82355973764,0.223694,2.75988853976,0,0,0,101.6, 89.8, 3.4,0,0,1024,1024,1024,1024,0,0,0,0,0,0,0,100,4.047,4.046,4.045,4.046,0,0,0.001,85.55,89.963017314512,0,0,,
82190,2026-06-04 04:49:47,-2.060762,105.1652359,-0.26874016608,,,89.694277148432,0,0.0671082,2.78576780568,5.9546917916,19,0,32.4137,90.786577052152,0.82355973764,0.223694,2.78576780568,0,0,0,102.2, 89.8, 4,0,0,1024,1024,1024,1024,0,0,0,0,0,0,0,100,4.047,4.046,4.045,4.046,0,0,0.001,85.55,89.694277148432,-0.26874016608,0,,
82390,2026-06-04 04:49:48,-2.0607621,105.1652359,-1.36970476824,,,88.593312546272,0,0.0894776,2.79506898708,5.9911747324,19,0,32.4137,90.786577052152,0.82355973764,0.223694,2.79506898708,0,0,0,101.9, 89.8, 3.7,0,0,1024,1024,1024,1024,0,0,0,0,0,0,0,100,4.047,4.046,4.045,4.046,0,0,0.001,85.55,88.593312546272,-1.36970476824,0,,
82590,2026-06-04 04:49:48,-2.0607621,105.1652358,-0.5461450306,,,89.416872283912,0,0.0894776,2.8302822428,6.0276248648,19,0,32.4137,90.786577052152,0.82355973764,0.223694,2.8302822428,0,0,0,101.9, 89.8, 3.7,0,0,1024,1024,1024,1024,0,0,0,0,0,0,0,100,4.047,4.046,4.045,4.046,0,0,0.001,85.55,89.416872283912,-0.5461450306,0,,
82790,2026-06-04 04:49:48,-2.0607622,105.1652357,0,,,89.963017314512,0,0.0223694,2.8750329004,6.0791996696,19,0,32.4139,90.786577052152,0.82355973764,0.223694,2.8750329004,0,0,0,102, 89.8, 3.8,0,0,1024,1024,1024,1024,0,0,0,0,0,0,0,100,4.047,4.046,4.045,4.046,0,0,0.001,85.55,89.963017314512,0,0,,
82990,2026-06-04 04:49:48,-2.0607622,105.1652356,-1.09229990372,,,88.870717410792,0,0.1342164,2.91019366268,6.1156826104,19,0,32.4139,90.786577052152,0.82355973764,0.223694,2.91019366268,0,0,0,102.3, 89.8, 4.1,0,0,1024,1024,1024,1024,0,0,0,0,0,0,0,100,4.047,4.046,4.045,4.046,0,0,0.001,85.55,88.870717410792,-1.09229990372,0,,
83190,2026-06-04 04:49:48,-2.0607623,105.1652356,-1.09229990372,,,88.870717410792,0,0.0447388,2.92000993596,6.1521655512,19,0,32.4139,90.786577052152,0.82355973764,0.223694,2.92000993596,0,0,0,105.6, 89.8, 7.4,0,0,1024,1024,1024,1024,0,0,0,0,0,0,0,100,4.047,4.046,4.045,4.046,0,0,0.001,85.55,88.870717410792,-1.09229990372,0,,
83390,2026-06-04 04:49:49,-2.0607623,105.1652356,-0.5461450306,,,89.416872283912,0,0,2.92000993596,6.1521655512,19,0,32.4139,90.786577052152,0.82355973764,0.223694,2.92000993596,0,0,0,106.4, 89.8, 8.2,0,0,1024,1024,1024,1024,0,0,0,0,0,0,0,100,4.047,4.046,4.045,4.046,0,0,0.001,85.55,89.416872283912,-0.5461450306,0,,
83590,2026-06-04 04:49:49,-2.0607624,105.1652355,-0.5461450306,,,89.416872283912,0,0.0894776,2.96520350696,6.203740356,19,0,32.4139,90.786577052152,0.82355973764,0.223694,2.96520350696,0,0,0,107.2, 89.8, 9,0,0,1024,1024,1024,1024,0,0,0,0,0,0,0,100,4.047,4.046,4.045,4.046,0,0,0.001,85.55,89.416872283912,-0.5461450306,0,,
83790,2026-06-04 04:49:49,-2.0607624,105.1652355,-0.26874016608,,,89.694277148432,0,0.0894776,2.96520350696,6.203740356,19,0,32.4137,90.786577052152,0.82355973764,0.223694,2.96520350696,0,0,0,107.2, 89.8, 9.1,0,0,1024,1024,1024,1024,0,0,0,0,0,0,0,100,4.047,4.045,4.045,4.046,0,0,0.001,85.55,89.694277148432,-0.26874016608,0,,
83990,2026-06-04 04:49:49,-2.0607624,105.1652354,-1.09229990372,,,88.870717410792,0,0.0894776,3.00019038472,6.2401904884,19,0,32.4137,90.786577052152,0.82355973764,0.223694,3.00019038472,0,0,0,107.3, 89.8, 9.1,0,0,1024,1024,1024,1024,0,0,0,0,0,0,0,100,4.047,4.045,4.045,4.046,0,0,0.001,85.55,88.870717410792,-1.09229990372,0,,
84190,2026-06-04 04:49:49,-2.0607624,105.1652354,-1.36970476824,,,88.593312546272,0,0.0671082,3.00019038472,6.2401904884,19,0,32.4137,90.786577052152,0.82355973764,0.223694,3.00019038472,0,0,0,107.7, 89.8, 9.6,0,0,1024,1024,1024,1024,0,0,0,0,0,0,0,100,4.047,4.045,4.045,4.046,0,0,0.001,85.55,88.593312546272,-1.36970476824,0,,
84390,2026-06-04 04:49:50,-2.0607625,105.1652353,-0.81488847752,,,89.148128836992,0,0.0894776,3.0455053468,6.2917981016,19,0,32.4137,90.786577052152,0.82355973764,0.223694,3.0455053468,0,0,0,107.7, 89.8, 9.6,0,0,1024,1024,1024,1024,0,0,0,0,0,0,0,100,4.047,4.045,4.045,4.046,0,0,0.001,85.55,89.148128836992,-0.81488847752,0,,
84590,2026-06-04 04:49:50,-2.0607624,105.1652353,-1.36970476824,,,88.593312546272,0,0.1565858,3.03521335172,6.3282810424,19,0,32.4137,90.786577052152,0.82355973764,0.223694,3.0455053468,0,0,0,108, 89.8, 9.9,0,0,1024,1024,1024,1024,0,0,0,0,0,0,0,100,4.047,4.045,4.045,4.046,0,0,0.001,85.55,88.593312546272,-1.36970476824,0,,
84790,2026-06-04 04:49:50,-2.0607624,105.1652352,-1.09229990372,,,88.870717410792,0,0.0671082,3.07027240796,6.3647311748,19,0,32.4136,90.786577052152,0.82355973764,0.223694,3.07027240796,0,0,0,107.4, 89.8, 9.2,0,0,1024,1024,1024,1024,0,0,0,0,0,0,0,100,4.047,4.045,4.046,4.046,0,0,0.001,85.55,88.870717410792,-1.09229990372,0,,
84990,2026-06-04 04:49:50,-2.0607624,105.1652352,-1.63844821516,,,88.324569099352,0,0.0447388,3.07027240796,6.3647311748,19,0,32.4136,90.786577052152,0.82355973764,0.223694,3.07027240796,0,0,0,106.9, 89.8, 8.8,0,0,1024,1024,1024,1024,0,0,0,0,0,0,0,100,4.047,4.045,4.046,4.046,0,0,0.001,85.55,88.324569099352,-1.63844821516,0,,
85190,2026-06-04 04:49:50,-2.0607625,105.1652352,-1.36970476824,,,88.593312546272,0,0.0223694,3.08044301196,6.4012141156,19,0,32.4136,90.786577052152,0.82355973764,0.223694,3.08044301196,0,0,0,107, 89.8, 8.8,0,0,1024,1024,1024,1024,0,0,0,0,0,0,0,100,4.047,4.045,4.046,4.046,0,0,0.001,85.55,88.593312546272,-1.36970476824,0,,
85390,2026-06-04 04:49:51,-2.0607625,105.1652351,-1.63844821516,,,88.324569099352,0,0.0223694,3.11541676636,6.437664248,19,0,32.4136,90.786577052152,0.82355973764,0.223694,3.11541676636,0,0,0,107.6, 89.8, 9.4,0,0,1024,1024,1024,1024,0,0,0,0,0,0,0,100,4.047,4.045,4.046,4.046,0,0,0.001,85.55,88.324569099352,-1.63844821516,0,,
85590,2026-06-04 04:49:51,-2.0607626,105.1652351,-0.81488847752,,,89.148128836992,0,0.0223694,3.1258695226,6.4741471888,19,0,32.4136,90.786577052152,0.82355973764,0.223694,3.1258695226,0,0,0,107.7, 89.8, 9.5,0,0,1024,1024,1024,1024,0,0,0,0,0,0,0,100,4.047,4.045,4.046,4.046,0,0,0.001,85.55,89.148128836992,-0.81488847752,0,,
85780,2026-06-04 04:49:51,-2.0607626,105.1652351,-1.91585636052,,,88.047160953992,0,0.0894776,3.1258695226,6.4741471888,19,0,32.4226,90.786577052152,0.82355973764,0.223694,3.1258695226,0,0,0,107.8, 89.8, 9.7,0,0,1024,1024,1024,1024,0,0,0,0,0,0,0,100,4.047,4.045,4.045,4.046,0,0,0.001,85.55,88.047160953992,-1.91585636052,0,,
85990,2026-06-04 04:49:51,-2.0607626,105.165235,0,,,89.963017314512,0,0.0447388,3.160761256,6.5106301296,19,0,32.4226,90.786577052152,0.82355973764,0.223694,3.160761256,0,0,0,108, 89.8, 9.9,0,0,1024,1024,1024,1024,0,0,0,0,0,0,0,100,4.047,4.045,4.045,4.046,0,0,0.001,85.55,89.963017314512,0,0,,
86190,2026-06-04 04:49:51,-2.0607626,105.165235,-1.91585636052,,,88.047160953992,0,0.0671082,3.160761256,6.5106301296,19,0,32.4226,90.786577052152,0.82355973764,0.223694,3.160761256,0,0,0,107, 89.8, 8.8,0,0,1024,1024,1024,1024,0,0,0,0,0,0,0,100,4.047,4.045,4.045,4.046,0,0,0.001,85.55,88.047160953992,-1.91585636052,0,,
86390,2026-06-04 04:49:52,-2.0607626,105.165235,0,,,89.963017314512,0,0.0894776,3.160761256,6.5106301296,19,0,32.4226,90.786577052152,0.82355973764,0.223694,3.160761256,0,0,0,106.9, 89.8, 8.8,0,0,1024,1024,1024,1024,0,0,0,0,0,0,0,100,4.047,4.045,4.045,4.046,0,0,0.001,85.55,89.963017314512,0,0,,
86590,2026-06-04 04:49:52,-2.0607627,105.1652349,-1.36970476824,,,88.593312546272,0,0.0894776,3.20629275352,6.5622049344,19,0,32.4226,90.786577052152,0.82355973764,0.223694,3.20629275352,0,0,0,106.8, 89.8, 8.6,0,0,1024,1024,1024,1024,0,0,0,0,0,0,0,100,4.047,4.045,4.045,4.046,0,0,0.001,85.55,88.593312546272,-1.36970476824,0,,
86790,2026-06-04 04:49:52,-2.0607627,105.1652349,0,,,89.963017314512,0,0.0223694,3.20629275352,6.5622049344,19,0,32.4225,90.786577052152,0.82355973764,0.223694,3.20629275352,0,0,0,107.2, 89.8, 9,0,0,1024,1024,1024,1024,0,0,0,0,0,0,0,100,4.047,4.045,4.046,4.046,0,0,0.001,85.55,89.963017314512,0,0,,
86990,2026-06-04 04:49:52,-2.0607627,105.1652349,-1.09229990372,,,88.870717410792,0,0.1342164,3.20629275352,6.5622049344,19,0,32.4225,90.786577052152,0.82355973764,0.223694,3.20629275352,0,0,0,107.3, 89.8, 9.1,0,0,1024,1024,1024,1024,0,0,0,0,0,0,0,100,4.047,4.045,4.046,4.046,0,0,0.001,85.55,88.870717410792,-1.09229990372,0,,
